FacilityName,Plant operator name,FacilityID,State,eGRID subregion acronym,Plant county name,Plant latitude,Plant longitude,Plant primary fuel,Plant primary coal/oil/gas/ other fossil fuel category,NERC region acronym,Balancing Authority Name,Balancing Authority Code,Plant coal generation percent (resource mix),Plant oil generation percent (resource mix),Plant gas generation percent (resource mix),Plant nuclear generation percent (resource mix),Plant  hydro generation percent (resource mix),Plant biomass generation percent (resource mix),Plant wind generation percent (resource mix),Plant solar generation percent (resource mix),Plant geothermal generation percent (resource mix),Plant other fossil generation percent (resource mix),Plant other unknown / purchased fuel generation percent (resource mix)
7-Mile Ridge Wind Project,Alaska Power and Telephone Co,60814,AK,AKMS,Southeast Fairbanks,63.210689,-143.247156,WND,WIND,,Alaska Miscellaneous,,,,,,,,,,,,
Agrium Kenai Nitrogen Operations,Homer Electric Assn Inc,54452,AK,AKGD,Kenai Peninsula,60.6732,-151.3784,NG,GAS,ASCC,Alaska Miscellaneous,,,,,,,,,,,,
Alakanuk,"Alaska Village Elec Coop, Inc",57053,AK,AKMS,Wade Hampton,62.6833,-164.6544,DFO,OIL,ASCC,Alaska Miscellaneous,,0,100,0,0,0,0,0,0,0,0,0
Allison Creek Hydro,"Copper Valley Elec Assn, Inc",58982,AK,AKMS,Valdez Cordova,61.084444,-146.353333,WAT,HYDRO,ASCC,Alaska Miscellaneous,,0,0,0,0,100,0,0,0,0,0,0
Ambler,"Alaska Village Elec Coop, Inc",60243,AK,AKMS,Northwest Arctic,67.08798,-157.856719,DFO,OIL,,Alaska Miscellaneous,,0,100,0,0,0,0,0,0,0,0,0
Anchorage 1,Anchorage Municipal Light and Power,75,AK,AKGD,Anchorage,61.2221,-149.8661,NG,GAS,ASCC,Anchorage Municipal Light & Power,AMPL,0,0.0900891708442394,99.9099108291558,0,0,0,0,0,0,0,0
Angoon,"Inside Passage Elec Coop, Inc",7462,AK,AKMS,Hoonah-Angoon,57.499166,-134.58614,DFO,OIL,ASCC,Alaska Miscellaneous,,0,100,0,0,0,0,0,0,0,0,0
Aniak,Aniak Light & Power Co Inc,7182,AK,AKMS,Bethel,61.580678,-159.535643,DFO,OIL,ASCC,Alaska Miscellaneous,,0,100,0,0,0,0,0,0,0,0,0
Annex Creek,Alaska Electric Light&Power Co,62,AK,AKMS,Juneau,58.3176,-134.101,WAT,HYDRO,ASCC,Alaska Miscellaneous,,0,0,0,0,100,0,0,0,0,0,0
Auke Bay,Alaska Electric Light&Power Co,7250,AK,AKMS,Juneau,58.3875,-134.6446,DFO,OIL,ASCC,Alaska Miscellaneous,,0,100,0,0,0,0,0,0,0,0,0
Aurora Energy LLC Chena,Golden Valley Elec Assn Inc,79,AK,AKGD,Fairbanks North Star,64.847743,-147.735063,SUB,COAL,ASCC,Alaska Miscellaneous,,100,0,0,0,0,0,0,0,0,0,0
Barrow,"Barrow Utils & Elec Coop, Inc",7173,AK,AKMS,North Slope,71.292,-156.7786,NG,GAS,ASCC,Alaska Miscellaneous,,0,0.00158885211913401,99.9984111478809,0,0,0,0,0,0,0,0
Battery Energy Storage System,Golden Valley Elec Assn Inc,57583,AK,AKGD,Fairbanks North Star,64.8167,-147.725,MWH,OTHF,ASCC,Alaska Miscellaneous,,,,,,,,,,,,
Beaver Falls,Ketchikan Public Utilities,6580,AK,AKMS,Ketchikan Gateway,55.37975,-131.470269,WAT,HYDRO,ASCC,Alaska Miscellaneous,,0,0,0,0,100,0,0,0,0,0,0
Beluga,Chugach Electric Assn Inc,96,AK,AKGD,Kenai Peninsula,61.1861,-151.0356,NG,GAS,ASCC,Chugach Electric Assn Inc,CEA,0,0,100,0,0,0,0,0,0,0,0
Bernice Lake,Alaska Electric & Energy Coop,6292,AK,AKGD,Kenai Peninsula,60.6935,-151.3874,NG,GAS,ASCC,Chugach Electric Assn Inc,CEA,0,0,100,0,0,0,0,0,0,0,0
Bethel,"Alaska Village Elec Coop, Inc",6566,AK,AKMS,Bethel,60.7897,-161.787778,DFO,OIL,ASCC,Alaska Miscellaneous,,0,100,0,0,0,0,0,0,0,0,0
Black Bear Lake,Alaska Power and Telephone Co,7752,AK,AKMS,Prince of Wales-Hyder,55.476472,-133.14772,WAT,HYDRO,ASCC,Alaska Miscellaneous,,0,0,0,0,100,0,0,0,0,0,0
Blue Lake Hydro,City & Borough of Sitka - (AK),93,AK,AKMS,Sitka,57.0516,-135.2297,WAT,HYDRO,ASCC,Alaska Miscellaneous,,0,0,0,0,100,0,0,0,0,0,0
Bradley Lake,Alaska Electric & Energy Coop,7367,AK,AKGD,Kenai Peninsula,59.77862,-150.94015,WAT,HYDRO,ASCC,Chugach Electric Assn Inc,CEA,0,0,0,0,100,0,0,0,0,0,0
Brevig Mission,"Alaska Village Elec Coop, Inc",60260,AK,AKMS,Nome,65.331716,-166.479506,DFO,OIL,,Alaska Miscellaneous,,0,100,0,0,0,0,0,0,0,0,0
Centennial,Metlakatla Power & Light,7112,AK,AKMS,Prince of Wales-Hyder,55.121433,-131.560267,DFO,OIL,ASCC,Alaska Miscellaneous,,0,100,0,0,0,0,0,0,0,0,0
Chester Lake,Metlakatla Power & Light,7168,AK,AKMS,Prince of Wales-Hyder,55.116879,-131.545879,WAT,HYDRO,ASCC,Alaska Miscellaneous,,0,0,0,0,100,0,0,0,0,0,0
Chevak,"Alaska Village Elec Coop, Inc",6311,AK,AKMS,Bethel,61.525297,-165.590152,DFO,OIL,ASCC,Alaska Miscellaneous,,0,100,0,0,0,0,0,0,0,0,0
Cooper Lake,Chugach Electric Assn Inc,6291,AK,AKGD,Kenai Peninsula,60.392331,-149.665603,WAT,HYDRO,ASCC,Chugach Electric Assn Inc,CEA,0,0,0,0,100,0,0,0,0,0,0
Craig (AK),Alaska Power and Telephone Co,421,AK,AKMS,Prince of Wales-Hyder,55.47691,-133.14869,DFO,OIL,ASCC,Alaska Miscellaneous,,0,100,0,0,0,0,0,0,0,0,0
Delta Power,Golden Valley Elec Assn Inc,56325,AK,AKGD,Southeast Fairbanks,64.028056,-145.719444,DFO,OIL,ASCC,Alaska Miscellaneous,,0,100,0,0,0,0,0,0,0,0,0
Delta Wind Farm,Golden Valley Elec Assn Inc,58511,AK,AKGD,Southeast Fairbanks,64.013889,-145.596667,WND,WIND,ASCC,Alaska Miscellaneous,,0,0,0,0,0,0,100,0,0,0,0
Dillingham,"Nushagak Electric Coop, Inc",109,AK,AKMS,Dillingham,59.042914,-158.468597,DFO,OIL,ASCC,Alaska Miscellaneous,,0,100,0,0,0,0,0,0,0,0,0
Dutch Harbor,City of Unalaska - (AK),7502,AK,AKMS,Aleutians West,53.892459,-166.538185,DFO,OIL,ASCC,Alaska Miscellaneous,,0,100,0,0,0,0,0,0,0,0,0
Eielson AFB Central Heat & Power Plant,Golden Valley Elec Assn Inc,50392,AK,AKGD,Fairbanks North Star,64.67141,-147.075988,SUB,COAL,ASCC,Alaska Miscellaneous,,99.6909630912069,0.309036908793079,0,0,0,0,0,0,0,0,0
Eklutna Generation Station,Matanuska Electric Assn Inc,58989,AK,AKGD,Anchorage,61.457778,-149.351389,NG,GAS,ASCC,Alaska Miscellaneous,,0,0,100,0,0,0,0,0,0,0,0
Eklutna Hydro Project,Chugach Electric Assn Inc,77,AK,AKGD,Matanuska Susitna,61.475211,-149.15009,WAT,HYDRO,ASCC,Anchorage Municipal Light & Power,AMPL,0,0,0,0,100,0,0,0,0,0,0
Elim,"Alaska Village Elec Coop, Inc",57060,AK,AKMS,Nome,64.616558,-162.263717,DFO,OIL,ASCC,Alaska Miscellaneous,,0,100,0,0,0,0,0,0,0,0,0
Emmonak,"Alaska Village Elec Coop, Inc",6314,AK,AKMS,Wade Hampton,62.777694,-164.531517,DFO,OIL,ASCC,Alaska Miscellaneous,,0,100,0,0,0,0,0,0,0,0,0
ESS Battery,Kodiak Electric Assn Inc,58405,AK,AKMS,Kodiak Island,57.799167,-152.404167,MWH,OTHF,ASCC,Alaska Miscellaneous,,,,,,,,,,,,
Eva Creek Wind,Golden Valley Elec Assn Inc,57935,AK,AKGD,Denali,64.058333,-148.9,WND,WIND,ASCC,Alaska Miscellaneous,,0,0,0,0,0,0,100,0,0,0,0
Fairbanks,Golden Valley Elec Assn Inc,6286,AK,AKGD,Fairbanks North Star,64.854171,-147.719351,DFO,OIL,ASCC,Alaska Miscellaneous,,0,100,0,0,0,0,0,0,0,0,0
False Island,Alaska Power and Telephone Co,56146,AK,AKMS,Prince of Wales-Hyder,55.48918,-133.1345,DFO,OIL,ASCC,Alaska Miscellaneous,,0,100,0,0,0,0,0,0,0,0,0
Fire Island Wind,Chugach Electric Assn Inc,58425,AK,AKGD,Anchorage,61.13,-150.243611,WND,WIND,ASCC,Chugach Electric Assn Inc,CEA,0,0,0,0,0,0,100,0,0,0,0
Flywheel Energy Storage System,Kodiak Electric Assn Inc,60563,AK,AKMS,Kodiak Island,57.780114,-152.443783,MWH,OTHF,,Alaska Miscellaneous,,,,,,,,,,,,
Fort Greely Power Plant,Golden Valley Elec Assn Inc,54834,AK,AKGD,Southeast Fairbanks,63.973572,-145.716581,DFO,OIL,ASCC,Alaska Miscellaneous,,0,100,0,0,0,0,0,0,0,0,0
Galena Electric Utility,Galena Electric Utility,7437,AK,AKMS,Yukon Koyukuk,64.74417,-156.8736,DFO,OIL,ASCC,Alaska Miscellaneous,,0,100,0,0,0,0,0,0,0,0,0
Gambell,"Alaska Village Elec Coop, Inc",57062,AK,AKMS,Nome,63.777058,-171.712439,DFO,OIL,ASCC,Alaska Miscellaneous,,0,100,0,0,0,0,0,0,0,0,0
George M Sullivan Generation Plant 2,Anchorage Municipal Light and Power,6559,AK,AKGD,Anchorage,61.229713,-149.716744,NG,GAS,ASCC,Anchorage Municipal Light & Power,AMPL,0,0.0168057679851053,99.9831942320149,0,0,0,0,0,0,0,0
Glennallen,"Copper Valley Elec Assn, Inc",6305,AK,AKMS,Valdez Cordova,62.110415,-145.532529,DFO,OIL,ASCC,Alaska Miscellaneous,,0,100,0,0,0,0,0,0,0,0,0
Goat Lake Hydro,Alaska Power and Telephone Co,7751,AK,AKMS,Skagway,59.5357,-135.2123,WAT,HYDRO,ASCC,Alaska Miscellaneous,,0,0,0,0,100,0,0,0,0,0,0
Gold Creek,Alaska Electric Light&Power Co,63,AK,AKMS,Juneau,58.3107,-134.4174,WAT,HYDRO,ASCC,Alaska Miscellaneous,,0,0.174026539047205,0,0,99.8259734609528,0,0,0,0,0,0
Green Lake,City & Borough of Sitka - (AK),313,AK,AKMS,Sitka,56.986284,-135.12275,WAT,HYDRO,ASCC,Alaska Miscellaneous,,0,0,0,0,100,0,0,0,0,0,0
Gwitchyaa Zhee,Gwitchyaa Zhee Utility Co,7174,AK,AKMS,Yukon Koyukuk,66.566287,-145.253052,DFO,OIL,ASCC,Alaska Miscellaneous,,0,100,0,0,0,0,0,0,0,0,0
Haines,Alaska Power and Telephone Co,69,AK,AKMS,Haines,59.235931,-135.446228,DFO,OIL,ASCC,Alaska Miscellaneous,,,,,,,,,,,,
Healy,Golden Valley Elec Assn Inc,6288,AK,AKGD,Denali,63.8542,-148.95,LIG,COAL,ASCC,Alaska Miscellaneous,,98.5042852396193,1.49571476038075,0,0,0,0,0,0,0,0,0
Hiilangaay Hydro,Alaska Power and Telephone Co,59037,AK,AKMS,Prince of Wales-Hyder,55.216389,-132.603611,WAT,HYDRO,ASCC,Alaska Miscellaneous,,,,,,,,,,,,
Hoonah,"Inside Passage Elec Coop, Inc",7463,AK,AKMS,Hoonah-Angoon,58.106432,-135.43074,DFO,OIL,ASCC,Alaska Miscellaneous,,0,100,0,0,0,0,0,0,0,0,0
Hooper Bay,"Alaska Village Elec Coop, Inc",6319,AK,AKMS,Bethel,61.530858,-166.101944,DFO,OIL,ASCC,Alaska Miscellaneous,,0,100,0,0,0,0,0,0,0,0,0
Humpback Creek,"Cordova Electric Coop, Inc",7042,AK,AKMS,Valdez Cordova,60.612822,-145.679411,WAT,HYDRO,ASCC,Alaska Miscellaneous,,0,0,0,0,100,0,0,0,0,0,0
Hydaburg,Alaska Power and Telephone Co,423,AK,AKMS,Prince of Wales-Hyder,55.204937,-132.821435,DFO,OIL,ASCC,Alaska Miscellaneous,,,,,,,,,,,,
Industrial Plant,Alaska Electric Light&Power Co,59793,AK,AKMS,Juneau,58.367635,-134.60802,DFO,OIL,ASCC,Alaska Miscellaneous,,0,100,0,0,0,0,0,0,0,0,0
International,Chugach Electric Assn Inc,6293,AK,AKGD,Anchorage,61.168972,-149.911038,NG,GAS,ASCC,Chugach Electric Assn Inc,CEA,,,,,,,,,,,
Jarvis Street,City & Borough of Sitka - (AK),6801,AK,AKMS,Sitka,57.0497,-135.3128,DFO,OIL,ASCC,Alaska Miscellaneous,,0,100,0,0,0,0,0,0,0,0,0
JBER Landfill Gas Power Plant,Anchorage Municipal Light and Power,58380,AK,AKGD,Anchorage,61.286,-149.61,LFG,BIOMASS,ASCC,Anchorage Municipal Light & Power,AMPL,0,0,0.00271427227396745,0,0,99.997285727726,0,0,0,0,0
Kake,"Inside Passage Elec Coop, Inc",7464,AK,AKMS,Petersburg,56.962983,-133.922557,DFO,OIL,ASCC,Alaska Miscellaneous,,0,100,0,0,0,0,0,0,0,0,0
Kasidaya Creek Hydro,Alaska Power and Telephone Co,56542,AK,AKMS,Skagway,59.4072,-135.3408,WAT,HYDRO,ASCC,Alaska Miscellaneous,,0,0,0,0,100,0,0,0,0,0,0
Kasigluk,"Alaska Village Elec Coop, Inc",57066,AK,AKMS,Bethel,60.8731,-162.5197,DFO,OIL,ASCC,Alaska Miscellaneous,,0,100,0,0,0,0,0,0,0,0,0
Ketchikan,Ketchikan Public Utilities,84,AK,AKMS,Ketchikan Gateway,55.344641,-131.633425,WAT,HYDRO,ASCC,Alaska Miscellaneous,,0,0,0,0,100,0,0,0,0,0,0
Kiana,"Alaska Village Elec Coop, Inc",6323,AK,AKMS,Northwest Arctic,66.973889,-160.428592,DFO,OIL,ASCC,Alaska Miscellaneous,,0,100,0,0,0,0,0,0,0,0,0
King Cove,City of King Cove,7493,AK,AKMS,Aleutians East,55.061683,-162.3103,WAT,HYDRO,ASCC,Alaska Miscellaneous,,0,46.6019417475728,0,0,53.3980582524272,0,0,0,0,0,0
Kivalina,"Alaska Village Elec Coop, Inc",57065,AK,AKMS,Northwest Arctic,67.726644,-164.538447,DFO,OIL,ASCC,Alaska Miscellaneous,,0,100,0,0,0,0,0,0,0,0,0
Klawock,,7466,AK,AKMS,Prince of Wales-Hyder,55.557778,-132.981389,DFO,OIL,ASCC,Alaska Miscellaneous,,,,,,,,,,,,
Kodiak,Kodiak Electric Assn Inc,6281,AK,AKMS,Kodiak Island,57.789956,-152.396982,DFO,OIL,ASCC,Alaska Miscellaneous,,,,,,,,,,,,
Kotlik,"Alaska Village Elec Coop, Inc",57064,AK,AKMS,Wade Hampton,63.03215,-163.553106,DFO,OIL,ASCC,Alaska Miscellaneous,,0,100,0,0,0,0,0,0,0,0,0
Kotzebue,Kotzebue Electric Assn Inc,6304,AK,AKMS,Northwest Arctic,66.837778,-162.556944,DFO,OIL,ASCC,Alaska Miscellaneous,,0,80.5069844681059,0,0,0,0,19.4930155318941,0,0,0,0
Koyuk,"Alaska Village Elec Coop, Inc",57059,AK,AKMS,Nome,64.932089,-161.167103,DFO,OIL,ASCC,Alaska Miscellaneous,,0,100,0,0,0,0,0,0,0,0,0
Lake Dorothy Hydroelectric Project,Alaska Electric Light&Power Co,57085,AK,AKMS,Juneau,58.2325,-134.0533,WAT,HYDRO,ASCC,Alaska Miscellaneous,,0,0,0,0,100,0,0,0,0,0,0
Lemon Creek,Alaska Electric Light&Power Co,64,AK,AKMS,Juneau,58.3536,-134.4953,DFO,OIL,ASCC,Alaska Miscellaneous,,0,100,0,0,0,0,0,0,0,0,0
Mahoney Lake Hydroelectric,Ketchikan Public Utilities,59027,AK,AKMS,Ketchikan Gateway,55.419444,-131.537778,WAT,HYDRO,ASCC,Alaska Miscellaneous,,,,,,,,,,,,
Marshall,"Alaska Village Elec Coop, Inc",60244,AK,AKMS,Wade Hampton,61.878186,-162.085147,DFO,OIL,,Alaska Miscellaneous,,0,100,0,0,0,0,0,0,0,0,0
McGrath,McGrath Light & Power Co,6555,AK,AKMS,Yukon Koyukuk,62.95699,-155.594997,DFO,OIL,ASCC,Alaska Miscellaneous,,0,100,0,0,0,0,0,0,0,0,0
Mountain Village,"Alaska Village Elec Coop, Inc",6329,AK,AKMS,Bethel,62.085569,-163.729072,DFO,OIL,ASCC,Alaska Miscellaneous,,0,100,0,0,0,0,0,0,0,0,0
Naknek,"Naknek Electric Assn, Inc",6301,AK,AKMS,Bristol Bay,58.730417,-157.007222,DFO,OIL,ASCC,Alaska Miscellaneous,,0,100,0,0,0,0,0,0,0,0,0
New Stuyahok,"Alaska Village Elec Coop, Inc",60245,AK,AKMS,Dillingham,59.448358,-157.325528,DFO,OIL,,Alaska Miscellaneous,,0,100,0,0,0,0,0,0,0,0,0
Newhalen,"I-N-N Electric Coop, Inc",7183,AK,AKMS,Lake and Peninsula,59.899054,-154.698735,WAT,HYDRO,ASCC,Alaska Miscellaneous,,0,2.42367012905257,0,0,97.5763298709474,0,0,0,0,0,0
Nikiski Co-Generation,Alaska Electric & Energy Coop,55966,AK,AKGD,Kenai Peninsula,60.676539,-151.377713,NG,GAS,ASCC,Chugach Electric Assn Inc,CEA,0,0,100,0,0,0,0,0,0,0,0
Noatak,"Alaska Village Elec Coop, Inc",57051,AK,AKMS,Northwest Arctic,67.570931,-162.965728,DFO,OIL,ASCC,Alaska Miscellaneous,,0,100,0,0,0,0,0,0,0,0,0
Noorvik,"Alaska Village Elec Coop, Inc",6330,AK,AKMS,Northwest Arctic,66.834519,-161.038717,DFO,OIL,ASCC,Alaska Miscellaneous,,0,100,0,0,0,0,0,0,0,0,0
North Pole,Golden Valley Elec Assn Inc,6285,AK,AKGD,Fairbanks North Star,64.7356,-147.3481,WO,OIL,ASCC,Alaska Miscellaneous,,0,100,0,0,0,0,0,0,0,0,0
Northway,Alaska Power and Telephone Co,7169,AK,AKMS,Southeast Fairbanks,62.9617,-141.9372,DFO,OIL,ASCC,Alaska Miscellaneous,,0,100,0,0,0,0,0,0,0,0,0
NSB Anaktuvuk Pass,North Slope Borough Power & Light,7487,AK,AKMS,North Slope,68.13795,-151.741017,DFO,OIL,ASCC,Alaska Miscellaneous,,0,100,0,0,0,0,0,0,0,0,0
NSB Atqasuk Utility,North Slope Borough Power & Light,7482,AK,AKMS,North Slope,70.4826,-157.4252,DFO,OIL,ASCC,Alaska Miscellaneous,,0,100,0,0,0,0,0,0,0,0,0
NSB Kaktovik Utility,North Slope Borough Power & Light,7483,AK,AKMS,North Slope,70.125617,-143.619033,DFO,OIL,ASCC,Alaska Miscellaneous,,0,100,0,0,0,0,0,0,0,0,0
NSB Nuiqsut Utility,North Slope Borough Power & Light,7484,AK,AKMS,North Slope,70.220565,-150.993492,DFO,OIL,ASCC,Alaska Miscellaneous,,0,6.52487005827689,93.4751299417231,0,0,0,0,0,0,0,0
NSB Point Hope Utility,North Slope Borough Power & Light,7485,AK,AKMS,North Slope,68.348424,-166.737211,DFO,OIL,ASCC,Alaska Miscellaneous,,0,100,0,0,0,0,0,0,0,0,0
NSB Point Lay Utility,North Slope Borough Power & Light,7486,AK,AKMS,North Slope,69.740833,-163.005833,DFO,OIL,ASCC,Alaska Miscellaneous,,0,100,0,0,0,0,0,0,0,0,0
NSB Wainwright Utility,North Slope Borough Power & Light,7488,AK,AKMS,North Slope,70.642877,-160.020461,DFO,OIL,ASCC,Alaska Miscellaneous,,0,100,0,0,0,0,0,0,0,0,0
Nunapitchuk,"Alaska Village Elec Coop, Inc",6333,AK,AKMS,Bethel,60.89588,-162.459756,DFO,OIL,ASCC,Alaska Miscellaneous,,,,,,,,,,,,
Nymans Plant,Kodiak Electric Assn Inc,7723,AK,AKMS,Kodiak Island,57.731608,-152.507044,DFO,OIL,ASCC,Alaska Miscellaneous,,,,,,,,,,,,
Orca,"Cordova Electric Coop, Inc",789,AK,AKMS,Valdez Cordova,60.555889,-145.752983,DFO,OIL,ASCC,Alaska Miscellaneous,,0,100,0,0,0,0,0,0,0,0,0
Pelican,Pelican Utility,6702,AK,AKMS,Hoonah-Angoon,57.957197,-136.220095,WAT,HYDRO,ASCC,Alaska Miscellaneous,,0,18.1535269709544,0,0,81.8464730290456,0,0,0,0,0,0
Petersburg,Petersburg Borough - (AK),91,AK,AKMS,Petersburg,56.81104,-132.957091,WAT,HYDRO,ASCC,Alaska Miscellaneous,,0,0.94393500026424,0,0,99.0560649997358,0,0,0,0,0,0
Pillar Mountain Wind Project,Kodiak Electric Assn Inc,57187,AK,AKMS,Kodiak Island,57.7869,-152.4406,WND,WIND,ASCC,Alaska Miscellaneous,,0,0,0,0,0,0,100,0,0,0,0
Pilot Station,"Alaska Village Elec Coop, Inc",57058,AK,AKMS,Wade Hampton,61.936456,-162.880706,DFO,OIL,ASCC,Alaska Miscellaneous,,0,100,0,0,0,0,0,0,0,0,0
Port Lions,Kodiak Electric Assn Inc,6282,AK,AKMS,Kodiak Island,57.864775,-152.855441,DFO,OIL,ASCC,Alaska Miscellaneous,,,,,,,,,,,,
Power Creek,"Cordova Electric Coop, Inc",7862,AK,AKMS,Valdez Cordova,60.588686,-145.604539,WAT,HYDRO,ASCC,Alaska Miscellaneous,,0,0,0,0,100,0,0,0,0,0,0
Purple Lake,Metlakatla Power & Light,6302,AK,AKMS,Prince of Wales-Hyder,55.091263,-131.544978,WAT,HYDRO,ASCC,Alaska Miscellaneous,,0,0,0,0,100,0,0,0,0,0,0
Quinhagak,"Alaska Village Elec Coop, Inc",57057,AK,AKMS,Bethel,59.747436,-161.910647,DFO,OIL,ASCC,Alaska Miscellaneous,,0,100,0,0,0,0,0,0,0,0,0
S W Bailey,Ketchikan Public Utilities,85,AK,AKMS,Ketchikan Gateway,55.357397,-131.69696,DFO,OIL,ASCC,Alaska Miscellaneous,,,,,,,,,,,,
Salmon Creek 1,Alaska Electric Light&Power Co,65,AK,AKMS,Juneau,58.3269,-134.4631,WAT,HYDRO,ASCC,Alaska Miscellaneous,,0,0,0,0,100,0,0,0,0,0,0
Savoonga,"Alaska Village Elec Coop, Inc",57052,AK,AKMS,Nome,63.695267,-170.475661,DFO,OIL,ASCC,Alaska Miscellaneous,,0,100,0,0,0,0,0,0,0,0,0
Scammon Bay,"Alaska Village Elec Coop, Inc",57056,AK,AKMS,Wade Hampton,61.843036,-165.581497,DFO,OIL,ASCC,Alaska Miscellaneous,,0,100,0,0,0,0,0,0,0,0,0
Selawik,"Alaska Village Elec Coop, Inc",6341,AK,AKMS,Northwest Arctic,66.606778,-160.014808,DFO,OIL,ASCC,Alaska Miscellaneous,,0,100,0,0,0,0,0,0,0,0,0
Seldovia,Homer Electric Assn Inc,6283,AK,AKGD,Kenai Peninsula,59.439542,-151.713439,DFO,OIL,ASCC,Chugach Electric Assn Inc,CEA,0,100,0,0,0,0,0,0,0,0,0
Seward (AK),City of Seward - (AK),92,AK,AKGD,Kenai Peninsula,60.130922,-149.43501,DFO,OIL,ASCC,Alaska Miscellaneous,,0,100,0,0,0,0,0,0,0,0,0
Shishmaref,"Alaska Village Elec Coop, Inc",6345,AK,AKMS,Nome,66.255072,-166.073589,DFO,OIL,ASCC,Alaska Miscellaneous,,0,100,0,0,0,0,0,0,0,0,0
Shungnak,"Alaska Village Elec Coop, Inc",57063,AK,AKMS,Northwest Arctic,66.888114,-157.140206,DFO,OIL,ASCC,Alaska Miscellaneous,,0,100,0,0,0,0,0,0,0,0,0
Silvis,Ketchikan Public Utilities,6581,AK,AKMS,Ketchikan Gateway,55.381402,-131.517758,WAT,HYDRO,ASCC,Alaska Miscellaneous,,0,0,0,0,100,0,0,0,0,0,0
Skagway,Alaska Power and Telephone Co,66,AK,AKMS,Skagway,59.4545,-135.3131,WAT,HYDRO,ASCC,Alaska Miscellaneous,,0,2.9126213592233,0,0,97.0873786407767,0,0,0,0,0,0
Snake River,Nome Joint Utility Systems,90,AK,AKMS,Nome,64.505331,-165.429814,DFO,OIL,ASCC,Alaska Miscellaneous,,0,94.6996577385625,0,0,0,0,5.3003422614375,0,0,0,0
Snettisham,Alaska Electric Light&Power Co,78,AK,AKMS,Juneau,58.1415,-133.737,WAT,HYDRO,ASCC,Alaska Miscellaneous,,0,0,0,0,100,0,0,0,0,0,0
Soldotna,Homer Electric Assn Inc,57206,AK,AKGD,Kenai Peninsula,60.499444,-150.997222,NG,GAS,ASCC,Chugach Electric Assn Inc,CEA,0,0,100,0,0,0,0,0,0,0,0
Solomon Gulch,"Copper Valley Elec Assn, Inc",390,AK,AKMS,Valdez Cordova,61.0828,-146.3033,WAT,HYDRO,ASCC,Alaska Miscellaneous,,0,0,0,0,100,0,0,0,0,0,0
South Fork,Alaska Power and Telephone Co,56265,AK,AKMS,Prince of Wales-Hyder,55.563333,-132.891111,WAT,HYDRO,ASCC,Alaska Miscellaneous,,0,0,0,0,100,0,0,0,0,0,0
Southcentral Power Project,Chugach Electric Assn Inc,57036,AK,AKGD,Anchorage,61.167417,-149.905304,NG,GAS,ASCC,Chugach Electric Assn Inc,CEA,0,0,100,0,0,0,0,0,0,0,0
St Marys IC,"Alaska Village Elec Coop, Inc",6338,AK,AKMS,Bethel,62.051525,-163.172567,DFO,OIL,ASCC,Alaska Miscellaneous,,0,100,0,0,0,0,0,0,0,0,0
St. Michael,"Alaska Village Elec Coop, Inc",57061,AK,AKMS,Nome,63.4775,-162.0383,DFO,OIL,ASCC,Alaska Miscellaneous,,,,,,,,,,,,
Stebbins,"Alaska Village Elec Coop, Inc",57055,AK,AKMS,Nome,63.521047,-162.286322,DFO,OIL,ASCC,Alaska Miscellaneous,,0,100,0,0,0,0,0,0,0,0,0
Swampy Acres,Kodiak Electric Assn Inc,60250,AK,AKMS,Kodiak Island,57.77556,-152.48028,DFO,OIL,,Alaska Miscellaneous,,,,,,,,,,,,
Swan Lake,Ketchikan Public Utilities,70,AK,AKMS,Ketchikan Gateway,55.615208,-131.356111,WAT,HYDRO,ASCC,Alaska Miscellaneous,,0,0,0,0,100,0,0,0,0,0,0
Sweetheart Lake Hydroelectric Facility,Alaska Electric Light&Power Co,60588,AK,AKMS,Juneau,57.9449,-133.6867,WAT,HYDRO,,Alaska Miscellaneous,,,,,,,,,,,,
Terror Lake,Kodiak Electric Assn Inc,71,AK,AKMS,Kodiak Island,57.6861,-152.895,WAT,HYDRO,ASCC,Alaska Miscellaneous,,0,0,0,0,100,0,0,0,0,0,0
Tesoro Kenai Cogeneration Plant,Homer Electric Assn Inc,52184,AK,AKGD,Kenai Peninsula,60.677,-151.3815,NG,GAS,ASCC,Alaska Miscellaneous,,0,0,100,0,0,0,0,0,0,0,0
Thorne Bay Plant,Alaska Power and Telephone Co,7414,AK,AKMS,Prince of Wales-Hyder,55.68586,-132.52892,DFO,OIL,ASCC,Alaska Miscellaneous,,,,,,,,,,,,
TNSG North Plant,TDX North Slope Generating Co,58278,AK,AKMS,North Slope,70.235278,-148.383611,NG,GAS,ASCC,Alaska Miscellaneous,,0,0,100,0,0,0,0,0,0,0,0
TNSG South Plant,TDX North Slope Generating Co,58117,AK,AKMS,North Slope,70.2,-148.466667,NG,GAS,ASCC,Alaska Miscellaneous,,,,,,,,,,,,
Togiak,"Alaska Village Elec Coop, Inc",6348,AK,AKMS,Dillingham,59.059744,-160.380278,DFO,OIL,ASCC,Alaska Miscellaneous,,0,100,0,0,0,0,0,0,0,0,0
Tok,Alaska Power and Telephone Co,406,AK,AKMS,Southeast Fairbanks,63.33552,-142.99997,DFO,OIL,ASCC,Alaska Miscellaneous,,0,100,0,0,0,0,0,0,0,0,0
Toksook Bay,"Alaska Village Elec Coop, Inc",57067,AK,AKMS,Bethel,60.530142,-165.108575,DFO,OIL,ASCC,Alaska Miscellaneous,,0,100,0,0,0,0,0,0,0,0,0
Tyee Lake Hydroelectric Facility,,61166,AK,AKMS,Wrangell,56.216403,-131.504344,WAT,HYDRO,,Alaska Miscellaneous,,0,0,0,0,100,0,0,0,0,0,0
Unalakleet,Unalakleet Valley Elec Coop,6299,AK,AKMS,Nome,63.876789,-160.790414,DFO,OIL,ASCC,Alaska Miscellaneous,,0,100,0,0,0,0,0,0,0,0,0
Unalaska Power Module,City of Unalaska - (AK),7503,AK,AKMS,Aleutians West,53.863993,-166.512591,DFO,OIL,ASCC,Alaska Miscellaneous,,0,100,0,0,0,0,0,0,0,0,0
Unisea G 2,City of Unalaska - (AK),54422,AK,AKMS,Aleutians West,53.8796,-166.5532,DFO,OIL,ASCC,Alaska Miscellaneous,,0,98.3460891921289,0,0,0,1.65391080787106,0,0,0,0,0
University of Alaska Fairbanks,Golden Valley Elec Assn Inc,50711,AK,AKGD,Fairbanks North Star,64.854171,-147.822075,SUB,COAL,ASCC,Alaska Miscellaneous,,90.9089348334307,6.33942382622248,2.75164134034678,0,0,0,0,0,0,0,0
Upper Kalskag,"Alaska Village Elec Coop, Inc",57054,AK,AKMS,Bethel,61.526858,-160.348128,DFO,OIL,ASCC,Alaska Miscellaneous,,0,100,0,0,0,0,0,0,0,0,0
Utility Plants Section,Golden Valley Elec Assn Inc,50308,AK,AKGD,Fairbanks North Star,64.825601,-147.648627,SUB,COAL,ASCC,Alaska Miscellaneous,,100,0,0,0,0,0,0,0,0,0,0
Valdez,"Copper Valley Elec Assn, Inc",6306,AK,AKMS,Valdez Cordova,61.1303,-146.3647,DFO,OIL,ASCC,Alaska Miscellaneous,,0,100,0,0,0,0,0,0,0,0,0
Valdez Cogen,"Copper Valley Elec Assn, Inc",7841,AK,AKMS,Valdez Cordova,61.0839,-146.2529,WO,OIL,ASCC,Alaska Miscellaneous,,0,100,0,0,0,0,0,0,0,0,0
Viking,Alaska Power and Telephone Co,56147,AK,AKMS,Prince of Wales-Hyder,55.540708,-133.102344,DFO,OIL,ASCC,Alaska Miscellaneous,,,,,,,,,,,,
Westward Seafoods,City of Unalaska - (AK),54305,AK,AKMS,Aleutians West,53.858508,-166.55288,DFO,OIL,ASCC,Alaska Miscellaneous,,0,100,0,0,0,0,0,0,0,0,0
Whitman,Ketchikan Public Utilities,58977,AK,AKMS,Ketchikan Gateway,55.328056,-131.530833,WAT,HYDRO,ASCC,Alaska Miscellaneous,,0,0,0,0,100,0,0,0,0,0,0
Wrangell,City of Wrangell - (AK),95,AK,AKMS,Wrangell,56.460976,-132.379439,DFO,OIL,ASCC,Alaska Miscellaneous,,0,100,0,0,0,0,0,0,0,0,0
Yakutat,CBY DBA Yakutat Power,6637,AK,AKMS,Yakutat,59.544553,-139.724306,DFO,OIL,ASCC,Alaska Miscellaneous,,0,100,0,0,0,0,0,0,0,0,0
ABC Coke,Alabama Power Co,56076,AL,SRSO,Jefferson,33.582793,-86.779866,OG,OFSL,SERC,"Southern Company Services, Inc. - Trans",SOCO,0,0,6.06744730679157,0,0,0,0,0,0,93.9325526932084,0
Alabama Pine Pulp,Alabama Power Co,54429,AL,SRSO,Monroe,31.5825,-87.4889,BLQ,BIOMASS,SERC,"Southern Company Services, Inc. - Trans",SOCO,0,0.0774821535773906,4.07911748385549,0,0,95.8434003625671,0,0,0,0,0
Alabama River Pulp,Alabama Power Co,10216,AL,SRSO,Monroe,31.5825,-87.4889,BLQ,BIOMASS,SERC,"Southern Company Services, Inc. - Trans",SOCO,0,0.482073148166411,8.45991388296642,0,0,91.0580129688672,0,0,0,0,0
Albertville,Tennessee Valley Authority,7924,AL,SRTV,Marshall,34.363389,-86.223889,DFO,OIL,SERC,Tennessee Valley Authority,TVA,,,,,,,,,,,
AMEA Sylacauga Plant,Alabama Power Co,56018,AL,SRSO,Talladega,33.1661,-86.2825,NG,GAS,SERC,"Southern Company Services, Inc. - Trans",SOCO,0,0,100,0,0,0,0,0,0,0,0
ANAD Solar Array,Alabama Power Co,60680,AL,SRSO,Calhoun,33.626728,-85.969481,SUN,SOLAR,SERC,"Southern Company Services, Inc. - Trans",SOCO,,,,,,,,,,,
APC1,,7708,AL,SRSO,,,,NG,GAS,SERC,"Southern Company Services, Inc. - Trans",SOCO,,,,,,,,,,,
APC2,,7876,AL,SRSO,,,,NG,GAS,SERC,"Southern Company Services, Inc. - Trans",SOCO,,,,,,,,,,,
APC3,,7877,AL,SRSO,,,,NG,GAS,SERC,"Southern Company Services, Inc. - Trans",SOCO,,,,,,,,,,,
Bankhead Dam,Alabama Power Co,2,AL,SRSO,Tuscaloosa,33.458665,-87.356823,WAT,HYDRO,SERC,"Southern Company Services, Inc. - Trans",SOCO,,,,,,,,,,,
Barry,Alabama Power Co,3,AL,SRSO,Mobile,31.0069,-88.0103,BIT,COAL,SERC,"Southern Company Services, Inc. - Trans",SOCO,33.5005058608661,0,66.4994941391339,0,0,0,0,0,0,0,0
Bartletts Ferry,Georgia Power Co,702,AL,SRSO,Lee,32.661976,-85.091552,WAT,HYDRO,SERC,"Southern Company Services, Inc. - Trans",SOCO,0,0,0,0,100,0,0,0,0,0,0
Bellefonte,Tennessee Valley Authority,6150,AL,SRTV,Jackson,34.7092,-85.9278,DFO,OIL,SERC,Tennessee Valley Authority,TVA,,,,,,,,,,,
Boise Cascade Pulp & Paper Mill,Alabama Power Co,55044,AL,SRSO,Clarke,31.4894,-87.8989,BLQ,BIOMASS,SERC,"Southern Company Services, Inc. - Trans",SOCO,0,0.115937508328353,37.9419098896945,0,0,61.9421526019771,0,0,0,0,0
Browns Ferry,Tennessee Valley Authority,46,AL,SRTV,Limestone,34.7042,-87.1189,NUC,NUCLEAR,SERC,Tennessee Valley Authority,TVA,0,0,0,100,0,0,0,0,0,0,0
Calhoun Energy Center,Alabama Power Co,55409,AL,SRSO,Calhoun,33.5883,-85.9731,NG,GAS,SERC,"Southern Company Services, Inc. - Trans",SOCO,0,2.40601978026434,97.5939802197357,0,0,0,0,0,0,0,0
Charles R Lowman,PowerSouth Energy Cooperative,56,AL,SRSO,Washington,31.488019,-87.910747,BIT,COAL,SERC,PowerSouth Energy Cooperative,AEC,99.3281211558091,0.671878844190871,0,0,0,0,0,0,0,0,0
Colbert,Tennessee Valley Authority,47,AL,SRTV,Colbert,34.7439,-87.8486,BIT,COAL,SERC,Tennessee Valley Authority,TVA,99.3166835273997,0.4229346273778,0.260381845222501,0,0,0,0,0,0,0,0
Crestwood Dothan,City of Dothan - (AL),54985,AL,SRSO,Houston,31.262356,-85.402737,DFO,OIL,SERC,"Southern Company Services, Inc. - Trans",SOCO,0,100,0,0,0,0,0,0,0,0,0
Decatur Energy Center,Tennessee Valley Authority,55292,AL,SRTV,Morgan,34.6292,-87.0214,NG,GAS,SERC,Tennessee Valley Authority,TVA,0,0,100,0,0,0,0,0,0,0,0
Decatur-Morgan Co LFG Recovery Project,Joe Wheeler Elec Member Corp,58061,AL,SRTV,Morgan,34.623611,-87.101111,LFG,BIOMASS,SERC,Tennessee Valley Authority,TVA,0,0,0,0,0,100,0,0,0,0,0
District 100 Transco Gas Pipe Line,Alabama Power Co,54743,AL,SRSO,Chilton,32.668889,-86.72,WH,OTHF,SERC,"Southern Company Services, Inc. - Trans",SOCO,,,,,,,,,,,
E B Harris Generating Plant,Alabama Power Co,7897,AL,SRSO,Autauga,32.381352,-86.574366,NG,GAS,SERC,"Southern Company Services, Inc. - Trans",SOCO,0,0,100,0,0,0,0,0,0,0,0
E C Gaston,Alabama Power Co,26,AL,SRSO,Shelby,33.244211,-86.458056,BIT,COAL,SERC,"Southern Company Services, Inc. - Trans",SOCO,88.1798865531887,0.00308380953270941,11.8170296372786,0,0,0,0,0,0,0,0
ExxonMobil Mobile Bay Onshore,Alabama Power Co,54550,AL,SRSO,Mobile,30.43203,-88.18241,NG,GAS,SERC,"Southern Company Services, Inc. - Trans",SOCO,0,0,100,0,0,0,0,0,0,0,0
Fort Rucker Solar Array,Alabama Power Co,60679,AL,SRSO,Dale,31.331148,-85.73019,SUN,SOLAR,SERC,"Southern Company Services, Inc. - Trans",SOCO,,,,,,,,,,,
Gadsden,Alabama Power Co,7,AL,SRSO,Etowah,34.0128,-85.9708,NG,GAS,SERC,"Southern Company Services, Inc. - Trans",SOCO,0,0,100,0,0,0,0,0,0,0,0
Gantt,PowerSouth Energy Cooperative,53,AL,SRSO,Covington,31.4033,-86.479469,WAT,HYDRO,SERC,PowerSouth Energy Cooperative,AEC,0,0,0,0,100,0,0,0,0,0,0
Georgia-Pacific Brewton Mill,Alabama Power Co,54789,AL,SRSO,Escambia,31.077,-87.1116,BLQ,BIOMASS,SERC,"Southern Company Services, Inc. - Trans",SOCO,0,3.24608806768153,43.5291346285992,0,0,53.2247773037193,0,0,0,0,0
Georgia-Pacific Consr Prods LP-Naheola,Alabama Power Co,10699,AL,SRSO,Choctaw,32.2268,-88.0252,BLQ,BIOMASS,SERC,"Southern Company Services, Inc. - Trans",SOCO,12.452703064817,0.436148893059638,27.0725315117764,0,0,60.0386165303469,0,0,0,0,0
Goat Rock,Georgia Power Co,707,AL,SRSO,Lee,32.60965,-85.0805,WAT,HYDRO,SERC,"Southern Company Services, Inc. - Trans",SOCO,0,0,0,0,100,0,0,0,0,0,0
Gorgas,Alabama Power Co,8,AL,SRSO,Walker,33.644344,-87.196486,BIT,COAL,SERC,"Southern Company Services, Inc. - Trans",SOCO,99.7731327894133,0.226867210586665,0,0,0,0,0,0,0,0,0
Greene County,Alabama Power Co,10,AL,SRSO,Greene,32.6017,-87.7811,NG,GAS,SERC,"Southern Company Services, Inc. - Trans",SOCO,40.1387876613915,0.000458066910646842,59.8607542716979,0,0,0,0,0,0,0,0
Guntersville,Tennessee Valley Authority,48,AL,SRTV,Marshall,34.421272,-86.393931,WAT,HYDRO,SERC,Tennessee Valley Authority,TVA,0,0,0,0,100,0,0,0,0,0,0
H Neely Henry Dam,Alabama Power Co,11,AL,SRSO,Calhoun,33.7845,-86.0524,WAT,HYDRO,SERC,"Southern Company Services, Inc. - Trans",SOCO,0,0,0,0,100,0,0,0,0,0,0
Harris Dam,Alabama Power Co,6188,AL,SRSO,Randolph,33.258281,-85.616047,WAT,HYDRO,SERC,"Southern Company Services, Inc. - Trans",SOCO,0,0,0,0,100,0,0,0,0,0,0
Hillabee Energy Center,Alabama Power Co,55411,AL,SRSO,Tallapoosa,33.000669,-85.903278,NG,GAS,SERC,"Southern Company Services, Inc. - Trans",SOCO,0,0,100,0,0,0,0,0,0,0,0
Hog Bayou Energy Center,Alabama Power Co,55241,AL,SRSO,Mobile,30.7478,-88.0575,NG,GAS,SERC,"Southern Company Services, Inc. - Trans",SOCO,0,0,100,0,0,0,0,0,0,0,0
Holt Dam,Alabama Power Co,12,AL,SRSO,Tuscaloosa,33.2553,-87.4495,WAT,HYDRO,SERC,"Southern Company Services, Inc. - Trans",SOCO,0,0,0,0,100,0,0,0,0,0,0
International Paper-Prattville Mill,Alabama Power Co,52140,AL,SRSO,Autauga,32.4187,-86.4718,BLQ,BIOMASS,SERC,"Southern Company Services, Inc. - Trans",SOCO,4.98691466005369,0.486240723245489,15.3098799856355,0,0,79.2169646310653,0,0,0,0,0
International Paper-Riverdale Mill,Alabama Power Co,54096,AL,SRSO,Dallas,32.426016,-86.870912,NG,GAS,SERC,"Southern Company Services, Inc. - Trans",SOCO,0,0,59.8500455756481,0,0,40.1499544243519,0,0,0,0,0
James H Miller Jr,Alabama Power Co,6002,AL,SRSO,Jefferson,33.6319,-87.0597,SUB,COAL,SERC,"Southern Company Services, Inc. - Trans",SOCO,98.475549078072,0,1.52445092192803,0,0,0,0,0,0,0,0
Jones Bluff,Alabama Power Co,6131,AL,SRSO,Autauga,32.324242,-86.784319,WAT,HYDRO,SERC,"Southern Company Services, Inc. - Trans",SOCO,0,0,0,0,100,0,0,0,0,0,0
Jordan Dam,Alabama Power Co,13,AL,SRSO,Elmore,32.6189,-86.2548,WAT,HYDRO,SERC,"Southern Company Services, Inc. - Trans",SOCO,0,0,0,0,100,0,0,0,0,0,0
Joseph M Farley,Alabama Power Co,6001,AL,SRSO,Houston,31.2231,-85.1116,NUC,NUCLEAR,SERC,"Southern Company Services, Inc. - Trans",SOCO,0,0,0,100,0,0,0,0,0,0,0
LaFayette Solar Farm,Alabama Power Co,60583,AL,SRSO,Chambers,32.876313,-85.38821,SUN,SOLAR,SERC,"Southern Company Services, Inc. - Trans",SOCO,,,,,,,,,,,
Langdale,Georgia Power Co,711,AL,SRSO,Chambers,32.813836,-85.167786,WAT,HYDRO,SERC,"Southern Company Services, Inc. - Trans",SOCO,,,,,,,,,,,
Lay Dam,Alabama Power Co,15,AL,SRSO,Chilton,32.9633,-86.5187,WAT,HYDRO,SERC,"Southern Company Services, Inc. - Trans",SOCO,0,0,0,0,100,0,0,0,0,0,0
Lewis Smith Dam,Alabama Power Co,18,AL,SRSO,Walker,33.9406,-87.1077,WAT,HYDRO,SERC,"Southern Company Services, Inc. - Trans",SOCO,0,0,0,0,100,0,0,0,0,0,0
Logan Martin Dam,Alabama Power Co,14,AL,SRSO,Talladega,33.425878,-86.337547,WAT,HYDRO,SERC,"Southern Company Services, Inc. - Trans",SOCO,0,0,0,0,100,0,0,0,0,0,0
Martin Dam,Alabama Power Co,16,AL,SRSO,Elmore,32.680394,-85.911442,WAT,HYDRO,SERC,"Southern Company Services, Inc. - Trans",SOCO,0,0,0,0,100,0,0,0,0,0,0
McIntosh (7063),PowerSouth Energy Cooperative,7063,AL,SRSO,Washington,31.2546,-88.0299,NG,GAS,SERC,PowerSouth Energy Cooperative,AEC,0,0.00178715386034947,99.9982128461397,0,0,0,0,0,0,0,0
McWilliams,PowerSouth Energy Cooperative,533,AL,SRSO,Covington,31.400255,-86.476449,NG,GAS,SERC,PowerSouth Energy Cooperative,AEC,0,0.00143698356091016,99.9985630164391,0,0,0,0,0,0,0,0
"MeadWestvaco Coated Board, LLC",Alabama Power Co,54802,AL,SRSO,Russell,32.1761,-85.0272,NG,GAS,SERC,"Southern Company Services, Inc. - Trans",SOCO,0,0,23.672409581448,0,0,76.327590418552,0,0,0,0,0
Millers Ferry,Alabama Power Co,38,AL,SRSO,Wilcox,32.100881,-87.399767,WAT,HYDRO,SERC,"Southern Company Services, Inc. - Trans",SOCO,0,0,0,0,100,0,0,0,0,0,0
Mitchell Dam,Alabama Power Co,17,AL,SRSO,Coosa,32.806025,-86.444892,WAT,HYDRO,SERC,"Southern Company Services, Inc. - Trans",SOCO,0,0,0,0,100,0,0,0,0,0,0
Mobile Energy Services LLC,Alabama Power Co,50407,AL,SRSO,Mobile,30.736487,-88.051643,WDS,BIOMASS,SERC,"Southern Company Services, Inc. - Trans",SOCO,0,0,42.1275400454743,0,0,57.8724599545257,0,0,0,0,0
Morgan Energy Center,Tennessee Valley Authority,55293,AL,SRTV,Morgan,34.6397,-87.0639,NG,GAS,SERC,Tennessee Valley Authority,TVA,0,0,100,0,0,0,0,0,0,0,0
Plant H. Allen Franklin,Georgia Power Co,7710,AL,SRSO,Lee,32.6078,-85.0975,NG,GAS,SERC,"Southern Company Services, Inc. - Trans",SOCO,0,0,100,0,0,0,0,0,0,0,0
Point A,PowerSouth Energy Cooperative,55,AL,SRSO,Covington,31.361146,-86.518307,WAT,HYDRO,SERC,PowerSouth Energy Cooperative,AEC,0,0,0,0,100,0,0,0,0,0,0
"River Bend Solar, LLC",Tennessee Valley Authority,60058,AL,SRTV,Lauderdale,34.831511,-87.842204,SUN,SOLAR,SERC,Tennessee Valley Authority,TVA,0,0,0,0,0,0,0,100,0,0,0
Rock-Tenn Mill,Alabama Power Co,54763,AL,SRSO,Marengo,32.4541,-87.9759,BLQ,BIOMASS,SERC,"Southern Company Services, Inc. - Trans",SOCO,7.08246236009158,0.115643684549309,7.00217262193642,0,0,85.7997213334227,0,0,0,0,0
SABIC Innovative Plastics - Burkville,Alabama Power Co,7698,AL,SRSO,Lowndes,32.310226,-86.52542,NG,GAS,SERC,"Southern Company Services, Inc. - Trans",SOCO,0,0,100,0,0,0,0,0,0,0,0
Sand Valley Power Station,Sand Mountain Electric Coop,59710,AL,SRTV,Dekalb,34.343875,-85.866103,LFG,BIOMASS,SERC,Tennessee Valley Authority,TVA,0,0,0,0,0,100,0,0,0,0,0
Sloss Industries Corp,Alabama Power Co,50359,AL,SRSO,Jefferson,33.568164,-86.79873,OG,OFSL,SERC,"Southern Company Services, Inc. - Trans",SOCO,0,0,10.4559516483887,0,0,0,0,0,0,89.5440483516113,0
Tenaska Central Alabama Gen Station,Alabama Power Co,55440,AL,SRSO,Autauga,32.6497,-86.74,NG,GAS,SERC,"Southern Company Services, Inc. - Trans",SOCO,0,0,100,0,0,0,0,0,0,0,0
Tenaska Lindsay Hill Generating Station,Alabama Power Co,55271,AL,SRSO,Autauga,32.6514,-86.7386,NG,GAS,SERC,"Southern Company Services, Inc. - Trans",SOCO,0,0,100,0,0,0,0,0,0,0,0
Theodore Cogeneration,Alabama Power Co,7721,AL,SRSO,Mobile,30.525445,-88.128477,NG,GAS,SERC,"Southern Company Services, Inc. - Trans",SOCO,0,0,100,0,0,0,0,0,0,0,0
Thurlow Dam,Alabama Power Co,19,AL,SRSO,Elmore,32.535436,-85.887614,WAT,HYDRO,SERC,"Southern Company Services, Inc. - Trans",SOCO,0,0,0,0,100,0,0,0,0,0,0
U S Alliance Coosa Pines,Alabama Power Co,54216,AL,SRSO,Talladega,33.328107,-86.356825,BLQ,BIOMASS,SERC,"Southern Company Services, Inc. - Trans",SOCO,0,0,28.8845499803388,0,0,71.1154500196612,0,0,0,0,0
US Steel (Fairfield Works),Alabama Power Co,50730,AL,SRSO,Jefferson,33.4885,-86.9212,PRG,OTHF,SERC,"Southern Company Services, Inc. - Trans",SOCO,,,,,,,,,,,
Walter Bouldin Dam,Alabama Power Co,4,AL,SRSO,Elmore,32.583889,-86.283056,WAT,HYDRO,SERC,"Southern Company Services, Inc. - Trans",SOCO,0,0,0,0,100,0,0,0,0,0,0
Walton Discover Power Facility,Georgia Transmission Corp,55138,AL,SRSO,LEE,32.54098,-85.038879,NG,GAS,SERC,"Southern Company Services, Inc. - Trans",SOCO,0,0,100,0,0,0,0,0,0,0,0
Washington County Cogen (Olin),Alabama Power Co,7697,AL,SRSO,Washington,31.2504,-88.0156,NG,GAS,SERC,"Southern Company Services, Inc. - Trans",SOCO,0,0,100,0,0,0,0,0,0,0,0
Weiss Dam,Alabama Power Co,20,AL,SRSO,Cherokee,34.172142,-85.753806,WAT,HYDRO,SERC,"Southern Company Services, Inc. - Trans",SOCO,0,0,0,0,100,0,0,0,0,0,0
Westervelt Moundville Cogen,Alabama Power Co,57467,AL,SRSO,Hale,32.960714,-87.655419,WDS,BIOMASS,SERC,"Southern Company Services, Inc. - Trans",SOCO,0,0,0,0,0,100,0,0,0,0,0
Weyerhaeuser Pine Hill Operations,Alabama Power Co,54752,AL,SRSO,Wilcox,31.9698,-87.4806,BLQ,BIOMASS,SERC,"Southern Company Services, Inc. - Trans",SOCO,0.0325080610078371,0.280535661877329,10.1868339535958,0,0,89.5001223235191,0,0,0,0,0
Wheeler Dam,Tennessee Valley Authority,49,AL,SRTV,Lawrence,34.8069,-87.3819,WAT,HYDRO,SERC,Tennessee Valley Authority,TVA,0,0,0,0,100,0,0,0,0,0,0
Widows Creek,Tennessee Valley Authority,50,AL,SRTV,Jackson,34.883022,-85.755253,BIT,COAL,SERC,Tennessee Valley Authority,TVA,,,,,,,,,,,
Wilson Dam,Tennessee Valley Authority,6440,AL,SRTV,Lauderdale,34.79782,-87.62537,WAT,HYDRO,SERC,Tennessee Valley Authority,TVA,0,0,0,0,100,0,0,0,0,0,0
Yates Dam,Alabama Power Co,21,AL,SRSO,Elmore,32.5743,-85.8901,WAT,HYDRO,SERC,"Southern Company Services, Inc. - Trans",SOCO,0,0,0,0,100,0,0,0,0,0,0
Yellowhammer Gas Plant,Alabama Power Co,54730,AL,SRSO,MOBILE,30.403538,-88.12833,NG,GAS,SERC,"Southern Company Services, Inc. - Trans",SOCO,0,0,100,0,0,0,0,0,0,0,0
Archer Daniels Midland Little Rock,Entergy Arkansas Inc,54311,AR,SRMV,Pulaski,34.7,-92.199722,NG,GAS,SERC,"Midcontinent Independent Transmission System Operator, Inc..",MISO,,,,,,,,,,,
Arkansas Nuclear One,Entergy Arkansas Inc,8055,AR,SRMV,Pope,35.311,-93.2351,NUC,NUCLEAR,SERC,"Midcontinent Independent Transmission System Operator, Inc..",MISO,0,0,0,100,0,0,0,0,0,0,0
Ashdown,Southwestern Electric Power Co,54104,AR,SPSO,Little River,33.6417,-94.1083,BLQ,BIOMASS,SPP,Southwest Power Pool,SWPP,8.70131141906722,0,12.1689045126436,0,0,78.2480307938571,0,0,0,0.881753274431997,0
Beaver Dam,Southwestern Power Administration,182,AR,SPSO,Carroll,36.421507,-93.847373,WAT,HYDRO,SPP,Southwestern Power Administration,SPA,0,0,0,0,100,0,0,0,0,0,0
Blakely Mountain,Entergy Arkansas Inc,197,AR,SRMV,Garland,34.570984,-93.194425,WAT,HYDRO,SERC,"Midcontinent Independent Transmission System Operator, Inc..",MISO,0,0,0,0,100,0,0,0,0,0,0
Bull Shoals,Southwestern Power Administration,198,AR,SPSO,Marion,36.3635,-92.5763,WAT,HYDRO,SPP,Southwestern Power Administration,SPA,0,0,0,0,100,0,0,0,0,0,0
Carl Bailey,Entergy Arkansas Inc,202,AR,SRMV,Woodruff,35.260102,-91.363426,NG,GAS,SERC,"Midcontinent Independent Transmission System Operator, Inc..",MISO,0,0,100,0,0,0,0,0,0,0,0
Carpenter,Entergy Arkansas Inc,166,AR,SRMV,Garland,34.4425,-93.0262,WAT,HYDRO,SERC,"Midcontinent Independent Transmission System Operator, Inc..",MISO,0,0,0,0,100,0,0,0,0,0,0
Cecil Lynch,Entergy Arkansas Inc,167,AR,SRMV,Pulaski,34.7535,-92.1987,,,SERC,"Midcontinent Independent Transmission System Operator, Inc..",MISO,,,,,,,,,,,
City Water & Light - City of Jonesboro,City Water and Light Plant,56505,AR,SPSO,Craighead,35.848561,-90.725377,NG,GAS,SPP,"Midcontinent Independent Transmission System Operator, Inc..",MISO,0,0.00722501956499269,99.992774980435,0,0,0,0,0,0,0,0
Clearwater Paper APP CB,Entergy Arkansas Inc,50638,AR,SRMV,Desha,33.7061,-91.2371,BLQ,BIOMASS,SERC,"Midcontinent Independent Transmission System Operator, Inc..",MISO,0,0,30.5468871595331,0,0,69.4531128404669,0,0,0,0,0
Columbia Flooring Melbourne,Entergy Arkansas Inc,56182,AR,SRMV,Izard,36.060514,-91.919802,WDS,BIOMASS,SERC,"Midcontinent Independent Transmission System Operator, Inc..",MISO,0,0,0,0,0,100,0,0,0,0,0
Dam 2,Entergy Arkansas Inc,7246,AR,SRMV,Desha,33.986501,-91.315788,WAT,HYDRO,SERC,"Midcontinent Independent Transmission System Operator, Inc..",MISO,0,0,0,0,100,0,0,0,0,0,0
Dardanelle,Southwestern Power Administration,199,AR,SPSO,Pope,35.2503,-93.1686,WAT,HYDRO,SPP,Southwestern Power Administration,SPA,0,0,0,0,100,0,0,0,0,0,0
Degray,Entergy Arkansas Inc,187,AR,SRMV,Clark,34.211913,-93.110963,WAT,HYDRO,SERC,"Midcontinent Independent Transmission System Operator, Inc..",MISO,0,0,0,0,100,0,0,0,0,0,0
Dell Power Plant,"Associated Electric Coop, Inc",55340,AR,SRMW,Mississippi,35.8619,-90.0253,NG,GAS,SERC,"Associated Electric Cooperative, Inc.",AECI,0,0.167890935161399,99.8321090648386,0,0,0,0,0,0,0,0
Elkins Generating Center,Ozarks Electric Coop Corp - (AR),56489,AR,SPSO,Washington,35.9714,-94.0014,NG,GAS,SPP,Southwest Power Pool,SWPP,0,0,100,0,0,0,0,0,0,0,0
Ellis Hydro,Southwestern Electric Power Co,7040,AR,SPSO,Crawford,35.351361,-94.294349,WAT,HYDRO,SPP,Southwest Power Pool,SWPP,0,0,0,0,100,0,0,0,0,0,0
Flint Creek Power Plant,Southwestern Electric Power Co,6138,AR,SPSO,Benton,36.2561,-94.5241,SUB,COAL,SPP,Southwest Power Pool,SWPP,99.705320783453,0.294679216547037,0,0,0,0,0,0,0,0,0
Fourche Creek Wastewater,Entergy Arkansas Inc,10050,AR,SRMV,Pulaski,34.6968,-92.165,OBG,BIOMASS,SERC,"Midcontinent Independent Transmission System Operator, Inc..",MISO,0,0,16.8772099868971,0,0,83.1227900131029,0,0,0,0,0
Fulton,Southwestern Electric Power Co,7825,AR,SPSO,Hempstead,33.6094,-93.7924,NG,GAS,SPP,Southwest Power Pool,SWPP,0,0,100,0,0,0,0,0,0,0,0
Genova Arkansas I LLC,,55869,AR,SPSO,Washington,36.186111,-94.284166,NG,GAS,SPP,Southwest Power Pool,SWPP,,,,,,,,,,,
Georgia-Pacific Crossett LLC,Entergy Arkansas Inc,10606,AR,SRMV,Ashley,33.1421,-91.975,BLQ,BIOMASS,SERC,"Midcontinent Independent Transmission System Operator, Inc..",MISO,0,0.663659979454385,31.2434316265876,0,0,68.092908393958,0,0,0,0,0
Greers Ferry Lake,Southwestern Power Administration,188,AR,SPSO,Cleburne,35.5207,-91.9953,WAT,HYDRO,SPP,Southwestern Power Administration,SPA,0,0,0,0,100,0,0,0,0,0,0
Hamilton Moses,Entergy Arkansas Inc,168,AR,SRMV,St Francis,34.9806,-90.8722,NG,GAS,SERC,"Midcontinent Independent Transmission System Operator, Inc..",MISO,,,,,,,,,,,
Harry D. Mattison Power Plant,Southwestern Electric Power Co,56328,AR,SPSO,Washington,36.1855,-94.2841,NG,GAS,SPP,Southwest Power Pool,SWPP,0,0,100,0,0,0,0,0,0,0,0
Harvey Couch,Entergy Arkansas Inc,169,AR,SRMV,Lafayette,33.3592,-93.4649,NG,GAS,SERC,"Midcontinent Independent Transmission System Operator, Inc..",MISO,,,,,,,,,,,
Hot Spring  Energy Facility,Entergy Arkansas Inc,55418,AR,SRMV,Hot Spring,34.29759,-92.868344,NG,GAS,SERC,"Midcontinent Independent Transmission System Operator, Inc..",MISO,0,0,100,0,0,0,0,0,0,0,0
Independence,Entergy Arkansas Inc,6641,AR,SRMV,Independence,35.678442,-91.408761,SUB,COAL,SERC,"Midcontinent Independent Transmission System Operator, Inc..",MISO,99.8750092900642,0.124990709935769,0,0,0,0,0,0,0,0,0
John W. Turk Jr. Power Plant,Southwestern Electric Power Co,56564,AR,SPSO,Hempstead,33.649722,-93.811944,SUB,COAL,SPP,Southwest Power Pool,SWPP,99.7535604528634,0,0.24643954713658,0,0,0,0,0,0,0,0
Lake Catherine,Entergy Arkansas Inc,170,AR,SRMV,Hot Spring,34.4341,-92.9049,NG,GAS,SERC,"Midcontinent Independent Transmission System Operator, Inc..",MISO,0,0,100,0,0,0,0,0,0,0,0
Lee Creek Water Treatment Facility,Arkansas Valley Elec Coop Corp,54283,AR,SRMV,Crawford,35.484488,-94.392858,WAT,HYDRO,SPP,"Midcontinent Independent Transmission System Operator, Inc..",MISO,,,,,,,,,,,
Mabelvale,Entergy Arkansas Inc,171,AR,SRMV,Pulaski,34.635997,-92.409602,NG,GAS,SERC,"Midcontinent Independent Transmission System Operator, Inc..",MISO,,,,,,,,,,,
Magnet Cove Generating Station,Entergy Arkansas Inc,55714,AR,SRMV,Hot Spring,34.4297,-92.8317,NG,GAS,SERC,"Midcontinent Independent Transmission System Operator, Inc..",MISO,0,0,100,0,0,0,0,0,0,0,0
McClellan,Entergy Arkansas Inc,203,AR,SRMV,Ouachita,33.5648,-92.7917,NG,GAS,SERC,"Midcontinent Independent Transmission System Operator, Inc..",MISO,0,0,100,0,0,0,0,0,0,0,0
Municipal Light,Southwestern Power Administration,193,AR,SPSO,Clay,36.3858,-90.1867,DFO,OIL,SPP,Southwestern Power Administration,SPA,,,,,,,,,,,
Murray,Entergy Arkansas Inc,7166,AR,SRMV,Pulaski,34.7956,-92.3569,WAT,HYDRO,SERC,"Midcontinent Independent Transmission System Operator, Inc..",MISO,0,0,0,0,100,0,0,0,0,0,0
Narrows (AR),Southwestern Electric Power Co,195,AR,SPSO,Pike,34.148427,-93.715168,WAT,HYDRO,SERC,Southwest Power Pool,SWPP,0,0,0,0,100,0,0,0,0,0,0
Norfork,Southwestern Power Administration,196,AR,SPSO,Baxter,36.2491,-92.2401,WAT,HYDRO,SPP,Southwestern Power Administration,SPA,0,0,0,0,100,0,0,0,0,0,0
Osceola (AR),Entergy Arkansas Inc,172,AR,SRMV,Mississippi,35.6893,-89.994,DFO,OIL,SPP,"Midcontinent Independent Transmission System Operator, Inc..",MISO,,,,,,,,,,,
Oswald Generating Station,Entergy Arkansas Inc,55221,AR,SRMV,Pulaski,34.5923,-92.2166,NG,GAS,SERC,"Midcontinent Independent Transmission System Operator, Inc..",MISO,0,0,100,0,0,0,0,0,0,0,0
Ozark,Southwestern Power Administration,6142,AR,SPSO,Franklin,35.4693,-93.8175,WAT,HYDRO,SPP,Southwestern Power Administration,SPA,0,0,0,0,100,0,0,0,0,0,0
Ozarks Natural Energy,Ozarks Electric Coop Corp - (AR),60924,AR,SPSO,Washington,36.164296,-94.082269,SUN,SOLAR,SPP,Southwest Power Pool,SWPP,0,0,0,0,0,0,0,100,0,0,0
Paragould,Paragould Light & Water Comm,192,AR,SPSO,Greene,36.060556,-90.521389,DFO,OIL,SPP,Southwestern Power Administration,SPA,,,,,,,,,,,
Paragould Reciprocating,Paragould Light & Water Comm,8015,AR,SPSO,Greene,36.0242,-90.5094,NG,GAS,SPP,Southwestern Power Administration,SPA,0,0,100,0,0,0,0,0,0,0,0
Paragould Turbine,Paragould Light & Water Comm,7283,AR,SPSO,Greene,36.024272,-90.509229,NG,GAS,SPP,Southwestern Power Administration,SPA,0,0,100,0,0,0,0,0,0,0,0
Pine Bluff Energy Center,Entergy Arkansas Inc,55075,AR,SRMV,Jefferson,34.2181,-91.9025,NG,GAS,SERC,"Midcontinent Independent Transmission System Operator, Inc..",MISO,0,0,100,0,0,0,0,0,0,0,0
Pine Bluff Mill,Entergy Arkansas Inc,10627,AR,SRMV,Jefferson,34.221213,-91.907365,BLQ,BIOMASS,SERC,"Midcontinent Independent Transmission System Operator, Inc..",MISO,0,0,5.04870540362454,0,0,94.8112032048987,0,0,0,0.14009139147675,0
Plum Point Energy Station,Entergy Arkansas Inc,56456,AR,SRMV,Mississippi,35.6644,-89.9489,SUB,COAL,SERC,"Midcontinent Independent Transmission System Operator, Inc..",MISO,99.7976599240919,0.202340075908141,0,0,0,0,0,0,0,0,0
Remmel,Entergy Arkansas Inc,174,AR,SRMV,Hot Spring,34.4272,-92.8941,WAT,HYDRO,SERC,"Midcontinent Independent Transmission System Operator, Inc..",MISO,0,0,0,0,100,0,0,0,0,0,0
Riceland Foods Cogeneration Plant,Entergy Arkansas Inc,56079,AR,SRMV,Arkansas,34.5136,-91.5331,OBS,BIOMASS,SERC,"Midcontinent Independent Transmission System Operator, Inc..",MISO,0,0,0,0,0,100,0,0,0,0,0
Robert E Ritchie,Entergy Arkansas Inc,173,AR,SRMV,Phillips,34.4629,-90.5987,NG,GAS,SERC,"Midcontinent Independent Transmission System Operator, Inc..",MISO,,,,,,,,,,,
SR Camden,Ouachita Electric Coop Corp,59947,AR,SRMV,Calhoun,33.631538,-92.703611,SUN,SOLAR,SERC,Southwestern Power Administration,SPA,0,0,0,0,0,0,0,100,0,0,0
Stuttgart Solar,Entergy Arkansas Inc,61262,AR,SRMV,Arkansas,34.439722,-91.44,SUN,SOLAR,SERC,"Midcontinent Independent Transmission System Operator, Inc..",MISO,,,,,,,,,,,
Thomas Fitzhugh,Southwestern Electric Power Co,201,AR,SPSO,Franklin,35.462382,-93.804926,NG,GAS,SPP,Southwest Power Pool,SWPP,0,0,100,0,0,0,0,0,0,0,0
Two Pine Landfill Gas Recovery,Entergy Arkansas Inc,56523,AR,SRMV,Pulaski,34.8332,-92.157103,LFG,BIOMASS,SERC,"Midcontinent Independent Transmission System Operator, Inc..",MISO,0,0,0,0,0,100,0,0,0,0,0
UA Central Utility Plant,Southwestern Electric Power Co,60536,AR,SPSO,Washington,36.066336,-94.172254,NG,GAS,SPP,Southwest Power Pool,SWPP,0,0,100,0,0,0,0,0,0,0,0
Union Power Station,Entergy Arkansas Inc,55380,AR,SRMV,Union,33.296146,-92.589364,NG,GAS,SERC,"Midcontinent Independent Transmission System Operator, Inc..",MISO,0,0,100,0,0,0,0,0,0,0,0
Warren Lumber Mill,Entergy Arkansas Inc,50640,AR,SRMV,Bradley,33.6206,-92.078889,WDS,BIOMASS,SERC,"Midcontinent Independent Transmission System Operator, Inc..",MISO,,,,,,,,,,,
Waste Management Eco Vista LFGTE,Arkansas Electric Coop Corp,57025,AR,SPSO,Washington,36.140849,-94.259713,LFG,BIOMASS,SERC,"Midcontinent Independent Transmission System Operator, Inc..",MISO,0,0,0,0,0,100,0,0,0,0,0
Whillock,Entergy Arkansas Inc,7135,AR,SRMV,Conway,35.127591,-92.790273,WAT,HYDRO,SERC,"Midcontinent Independent Transmission System Operator, Inc..",MISO,0,0,0,0,100,0,0,0,0,0,0
White Bluff,Entergy Arkansas Inc,6009,AR,SRMV,Jefferson,34.4228,-92.1406,SUB,COAL,SERC,"Midcontinent Independent Transmission System Operator, Inc..",MISO,99.7752599826078,0.224740017392158,0,0,0,0,0,0,0,0,0
White River Lock and Dam 1,Southwestern Power Administration,57160,AR,SRMV,Independence,35.757401,-91.636887,WAT,HYDRO,SERC,Southwestern Power Administration,SPA,0,0,0,0,100,0,0,0,0,0,0
White River Lock and Dam 2,Southwestern Power Administration,57161,AR,SRMV,Independence,35.744036,-91.765418,WAT,HYDRO,SERC,Southwestern Power Administration,SPA,0,0,0,0,100,0,0,0,0,0,0
White River Lock and Dam 3,Southwestern Power Administration,57162,AR,SRMV,Stone,35.84361,-91.850521,WAT,HYDRO,SERC,Southwestern Power Administration,SPA,0,0,0,0,100,0,0,0,0,0,0
Actus Lend Lease DMAFB,Tucson Electric Power Co,58632,AZ,AZNM,Pima,32.1825,-110.863333,SUN,SOLAR,WECC,Tucson Electric Power Company,TEPC,0,0,0,0,0,0,0,100,0,0,0
Agua Caliente Solar Project,San Diego Gas & Electric Co,57373,AZ,CAMX,Yuma,32.9774,-113.4945,SUN,SOLAR,WECC,California Independent System Operator,CISO,0,0,0,0,0,0,0,100,0,0,0
Agua Fria Generating Station,Salt River Project,141,AZ,AZNM,Maricopa,33.5561,-112.2153,NG,GAS,WECC,Salt River Project,SRP,0,0,99.8198229686476,0,0,0,0,0.180177031352358,0,0,0
Amonix UASTP Solar Power Station,Tucson Electric Power Co,57930,AZ,AZNM,Pima,32.108147,-110.824662,SUN,SOLAR,WECC,Tucson Electric Power Company,TEPC,0,0,0,0,0,0,0,100,0,0,0
Amphitheater High School Solar,Tucson Electric Power Co,60684,AZ,AZNM,Pima,32.269,-110.975,SUN,SOLAR,WECC,Tucson Electric Power Company,TEPC,0,0,0,0,0,0,0,100,0,0,0
Apache Solar 1,Arizona Electric Pwr Coop Inc,60964,AZ,AZNM,Cochise,32.068141,-109.890379,SUN,SOLAR,WECC,No balancing authority,,,,,,,,,,,,
Apache Station,Arizona Electric Pwr Coop Inc,160,AZ,AZNM,Cochise,32.0603,-109.8931,SUB,COAL,WECC,Western Area Power Administration - Desert Southwest Region,WALC,92.2941692065988,0,7.70583079340117,0,0,0,0,0,0,0,0
APS Saguaro Power Plant,Arizona Public Service Co,118,AZ,AZNM,Pinal,32.5517,-111.3,NG,GAS,WECC,Arizona Public Service Company,AZPS,0,0,100,0,0,0,0,0,0,0,0
APS West Phoenix Power Plant,Arizona Public Service Co,117,AZ,AZNM,Maricopa,33.4417,-112.1583,NG,GAS,WECC,Arizona Public Service Company,AZPS,0,0,100,0,0,0,0,0,0,0,0
Arizona State University CHP,Arizona Public Service Co,58199,AZ,AZNM,Maricopa,33.417222,-111.928333,NG,GAS,WECC,Arizona Public Service Company,AZPS,0,0,100,0,0,0,0,0,0,0,0
Arizona Western College PV,Arizona Public Service Co,57765,AZ,AZNM,Yuma,32.687778,-114.49611,SUN,SOLAR,WECC,Arizona Public Service Company,AZPS,0,0,0,0,0,0,0,100,0,0,0
Arlington Valley Energy Facility,Salt River Project,55282,AZ,AZNM,Maricopa,33.3417,-112.8897,NG,GAS,WECC,"Arlington Valley, LLC - AVBA",DEAA,0,0,100,0,0,0,0,0,0,0,0
Arlington Valley Solar Energy I,Salt River Project,57679,AZ,AZNM,Maricopa,33.321667,-112.880555,SUN,SOLAR,WECC,Arizona Public Service Company,AZPS,,,,,,,,,,,
Arlington Valley Solar Energy II,Salt River Project,57680,AZ,AZNM,Maricopa,33.305,-112.833888,SUN,SOLAR,WECC,Arizona Public Service Company,AZPS,0,0,0,0,0,0,0,100,0,0,0
Avalon Solar,Tucson Electric Power Co,59168,AZ,AZNM,Pima,32.001389,-110.960556,SUN,SOLAR,WECC,Tucson Electric Power Company,TEPC,0,0,0,0,0,0,0,100,0,0,0
Avalon Solar II,Tucson Electric Power Co,60062,AZ,AZNM,Pima,32.000854,-110.958427,SUN,SOLAR,WECC,Tucson Electric Power Company,TEPC,0,0,0,0,0,0,0,100,0,0,0
Avra Valley Solar,Tucson Electric Power Co,57657,AZ,AZNM,Pima,32.371667,-111.282777,SUN,SOLAR,WECC,Tucson Electric Power Company,TEPC,0,0,0,0,0,0,0,100,0,0,0
Badger 1,Arizona Public Service Co,58262,AZ,AZNM,Maricopa,33.498003,-112.813458,SUN,SOLAR,WECC,Arizona Public Service Company,AZPS,0,0,0,0,0,0,0,100,0,0,0
Black Mountain Generating Station,"UNS Electric, Inc",56482,AZ,AZNM,Mohave,35.0361,-114.1594,NG,GAS,WECC,Tucson Electric Power Company,TEPC,0,0,100,0,0,0,0,0,0,0,0
Black Mountain Solar LLC,"UNS Electric, Inc",58042,AZ,AZNM,Mohave,35.0227,-114.1627,SUN,SOLAR,WECC,Arizona Public Service Company,AZPS,0,0,0,0,0,0,0,100,0,0,0
Bonnybrooke PV,Salt River Project,60413,AZ,AZNM,Pinal,33.053,-111.34,SUN,SOLAR,WECC,Salt River Project,SRP,0,0,0,0,0,0,0,100,0,0,0
"Buckeye Generation Center, LLC",Arizona Public Service Co,59471,AZ,AZNM,Maricopa,33.230833,-112.626389,NG,GAS,WECC,Arizona Public Service Company,AZPS,,,,,,,,,,,
Buckeye Union HS District 201,Arizona Public Service Co,58037,AZ,AZNM,Maricopa,33.419167,-112.576111,SUN,SOLAR,WECC,Arizona Public Service Company,AZPS,0,0,0,0,0,0,0,100,0,0,0
Canyon Del Oro High School Solar,Tucson Electric Power Co,60685,AZ,AZNM,Pima,32.374,-110.974,SUN,SOLAR,WECC,Tucson Electric Power Company,TEPC,0,0,0,0,0,0,0,100,0,0,0
Childs,,112,AZ,AZNM,Yavapai,34.351111,-111.700556,WAT,HYDRO,WECC,Arizona Public Service Company,AZPS,,,,,,,,,,,
Chino Solar Valley,Arizona Public Service Co,57560,AZ,AZNM,Yavapai,34.71843,-112.42899,SUN,SOLAR,WECC,Arizona Public Service Company,AZPS,0,0,0,0,0,0,0,100,0,0,0
Cholla,Arizona Public Service Co,113,AZ,AZNM,Navajo,34.9394,-110.3033,SUB,COAL,WECC,Arizona Public Service Company,AZPS,99.8256880356813,0.166265271662325,0.00804669265636821,0,0,0,0,0,0,0,0
Cogeneration 1,Tucson Electric Power Co,56229,AZ,AZNM,Pima,32.229922,-110.952797,NG,GAS,WECC,Tucson Electric Power Company,TEPC,0,0,100,0,0,0,0,0,0,0,0
Cogeneration 2,Tucson Electric Power Co,59233,AZ,AZNM,Pima,32.240833,-110.948333,NG,GAS,WECC,Tucson Electric Power Company,TEPC,0,0,100,0,0,0,0,0,0,0,0
Cogenra - TEP,Tucson Electric Power Co,58832,AZ,AZNM,Pima,32.101944,-110.813333,SUN,SOLAR,WECC,Tucson Electric Power Company,TEPC,0,0,0,0,0,0,0,100,0,0,0
"Concord Blue Eagar, LLC","Navopache Electric Coop, Inc",60374,AZ,AZNM,Apache,34.11494,-109.37503,OBG,BIOMASS,WECC,Public Service Company of New Mexico,PNM,,,,,,,,,,,
Coolidge Generating Station,Salt River Project,56948,AZ,AZNM,Pinal,32.917399,-111.503327,NG,GAS,WECC,Salt River Project,SRP,0,0,100,0,0,0,0,0,0,0,0
Copper Crossing Energy Center,Salt River Project,58413,AZ,AZNM,Pinal,33.15512,-111.483636,NG,GAS,WECC,Salt River Project,SRP,,,,,,,,,,,
Copper Crossing Solar LLC,Salt River Project,57318,AZ,AZNM,Gila,33.160601,-111.484011,SUN,SOLAR,WECC,Salt River Project,SRP,0,0,0,0,0,0,0,100,0,0,0
Coronado Generating Station,Salt River Project,6177,AZ,AZNM,Apache,34.5789,-109.2708,RC,COAL,WECC,Salt River Project,SRP,99.8413440228772,0.158655977122798,0,0,0,0,0,0,0,0,0
Cotton Center Solar,Arizona Public Service Co,57561,AZ,AZNM,Maricopa,33.034722,-112.661667,SUN,SOLAR,WECC,Arizona Public Service Company,AZPS,0,0,0,0,0,0,0,100,0,0,0
Crosscut,Salt River Project,143,AZ,AZNM,Maricopa,33.439375,-111.946052,,,WECC,Salt River Project,SRP,,,,,,,,,,,
Davis Dam,WAPA-- Western Area Power Administration,152,AZ,AZNM,Mohave,35.197044,-114.570669,WAT,HYDRO,WECC,Western Area Power Administration - Desert Southwest Region,WALC,0,0,0,0,100,0,0,0,0,0,0
Davis Monthan AFB (AZ) West Airfield,Tucson Electric Power Co,59779,AZ,AZNM,Pima,32.17356,-110.899734,SUN,SOLAR,WECC,Tucson Electric Power Company,TEPC,,,,,,,,,,,
De Moss Petrie Generating Station,Tucson Electric Power Co,124,AZ,AZNM,Pima,32.252273,-110.992148,NG,GAS,WECC,Tucson Electric Power Company,TEPC,0,0,100,0,0,0,0,0,0,0,0
Desert Basin Generating Station,Salt River Project,55129,AZ,AZNM,Pinal,32.9042,-111.7889,NG,GAS,WECC,Salt River Project,SRP,0,0,100,0,0,0,0,0,0,0,0
Dolan Springs,Western Area Power Administration - Rock,57920,AZ,AZNM,Mohave,35.61,-114.26,WND,WIND,WECC,Western Area Power Administration - Desert Southwest Region,WALC,,,,,,,,,,,
Douglas,Arizona Public Service Co,114,AZ,AZNM,Cochise,31.364122,-109.5538,DFO,OIL,WECC,Arizona Public Service Company,AZPS,0,100,0,0,0,0,0,0,0,0,0
Dry Lake Solar,Arizona Public Service Co,57922,AZ,AZNM,Navajo,34.513333,-110.078333,SUN,SOLAR,WECC,Arizona Public Service Company,AZPS,,,,,,,,,,,
Dry Lake Wind II LLC,Arizona Public Service Co,57379,AZ,AZNM,Navajo,34.6062,-110.1734,WND,WIND,WECC,Arizona Public Service Company,AZPS,0,0,0,0,0,0,100,0,0,0,0
Dry Lake Wind LLC,Salt River Project,57098,AZ,AZNM,Navajo,34.6596,-110.2842,WND,WIND,WECC,Salt River Project,SRP,0,0,0,0,0,0,100,0,0,0,0
FirstEnergy,,55711,AZ,AZNM,La Paz,33.935833,-113.555,NG,GAS,RFC,No balancing authority,,,,,,,,,,,,
Foothills Solar Plant,Arizona Public Service Co,57997,AZ,AZNM,Yuma,32.64856,-114.428741,SUN,SOLAR,WECC,Arizona Public Service Company,AZPS,0,0,0,0,0,0,0,100,0,0,0
Fort Huachuca Solar PV Project,Tucson Electric Power Co,58972,AZ,AZNM,Cochise,31.555278,-110.35,SUN,SOLAR,WECC,Tucson Electric Power Company,TEPC,0,0,0,0,0,0,0,100,0,0,0
"Gato Montes Solar, LLC",Tucson Electric Power Co,58842,AZ,AZNM,Pima,32.102778,-110.819722,SUN,SOLAR,WECC,Tucson Electric Power Company,TEPC,0,0,0,0,0,0,0,100,0,0,0
Gila Bend,Arizona Public Service Co,59020,AZ,AZNM,Maricopa,32.940833,-112.881389,SUN,SOLAR,WECC,Arizona Public Service Company,AZPS,0,0,0,0,0,0,0,100,0,0,0
Gila Bend Power Generation Station,Arizona Public Service Co,55507,AZ,AZNM,Maricopa,32.985977,-112.811009,NG,GAS,WECC,Arizona Public Service Company,AZPS,,,,,,,,,,,
Gila River Power Station,Arizona Public Service Co,55306,AZ,AZNM,Maricopa,32.975,-112.6944,NG,GAS,WECC,"Gila River Power, LLC",GRMA,0,0,100,0,0,0,0,0,0,0,0
"Gilbert Solar Facility I, LLC",Arizona Public Service Co,58543,AZ,AZNM,Maricopa,33.355862,-111.802355,SUN,SOLAR,WECC,Arizona Public Service Company,AZPS,0,0,0,0,0,0,0,100,0,0,0
Gillespie 1,Arizona Public Service Co,58501,AZ,AZNM,Maricopa,33.026389,-112.665833,SUN,SOLAR,WECC,Arizona Public Service Company,AZPS,0,0,0,0,0,0,0,100,0,0,0
Glen Canyon Dam,WAPA-- Western Area Power Administration,153,AZ,RMPA,Coconino,36.936614,-111.483872,WAT,HYDRO,WECC,Western Area Power Administration - Desert Southwest Region,WALC,0,0,0,0,100,0,0,0,0,0,0
Glendale Energy Power Plant,Arizona Public Service Co,57829,AZ,AZNM,Maricopa,33.540324,-112.306361,LFG,BIOMASS,WECC,Arizona Public Service Company,AZPS,0,0,0,0,0,100,0,0,0,0,0
Gray Hawk Solar,Tucson Electric Power Co,61272,AZ,AZNM,Mohave,35.3635,-113.8978,SUN,SOLAR,WECC,Tucson Electric Power Company,TEPC,,,,,,,,,,,
Griffith Energy Project,WAPA-- Western Area Power Administration,55124,AZ,AZNM,Mohave,35.054029,-114.133272,NG,GAS,WECC,"Griffith Energy, LLC",GRIF,0,0,100,0,0,0,0,0,0,0,0
Headgate Rock,Colorado River Indian Irr Proj,7179,AZ,AZNM,La Paz,34.168264,-114.277356,WAT,HYDRO,WECC,Western Area Power Administration - Desert Southwest Region,WALC,0,0,0,0,100,0,0,0,0,0,0
Hoover Dam (AZ),WAPA-- Western Area Power Administration,8902,AZ,AZNM,Mohave,36.01551,-114.738006,WAT,HYDRO,WECC,Western Area Power Administration - Desert Southwest Region,WALC,0,0,0,0,100,0,0,0,0,0,0
Horse Mesa,Salt River Project,145,AZ,AZNM,Maricopa,33.5907,-111.344,WAT,HYDRO,WECC,Salt River Project,SRP,0,0,0,0,100,0,0,0,0,0,0
Hyder II,Arizona Public Service Co,58383,AZ,AZNM,Yuma,33.027,-113.3489,SUN,SOLAR,WECC,Arizona Public Service Company,AZPS,0,0,0,0,0,0,0,100,0,0,0
Hyder Solar,Arizona Public Service Co,57563,AZ,AZNM,Yuma,33.02566,-113.34397,SUN,SOLAR,WECC,Arizona Public Service Company,AZPS,0,0,0,0,0,0,0,100,0,0,0
Intel - Ocotillo Campus Solar,Salt River Project,60822,AZ,AZNM,Maricopa,33.243261,-111.892354,SUN,SOLAR,WECC,Arizona Public Service Company,AZPS,,,,,,,,,,,
IRC Generator Facility,"Garkane Energy Coop, Inc",56899,AZ,NWPP,Coconino,36.9708,-112.5264,DFO,OIL,WECC,Western Area Power Administration - Desert Southwest Region,WALC,,,,,,,,,,,
Iron Horse Battery Storage,Tucson Electric Power Co,60996,AZ,AZNM,Pima,32.098492,-110.819119,,,WECC,Tucson Electric Power Company,TEPC,,,,,,,,,,,
Irving,,115,AZ,AZNM,Yavapai,34.402222,-111.617222,WAT,HYDRO,WECC,Arizona Public Service Company,AZPS,,,,,,,,,,,
Irvington Generating Station,Tucson Electric Power Co,126,AZ,AZNM,Pima,32.16,-110.9047,NG,GAS,WECC,Tucson Electric Power Company,TEPC,0,0,100,0,0,0,0,0,0,0,0
Jacobson 5 MW Solar,"UNS Electric, Inc",60603,AZ,AZNM,Mohave,35.304528,-114.014747,SUN,SOLAR,WECC,Tucson Electric Power Company,TEPC,,,,,,,,,,,
Jewish Community Center PV,Arizona Public Service Co,58292,AZ,AZNM,Maricopa,33.603056,-111.924722,SUN,SOLAR,WECC,Arizona Public Service Company,AZPS,0,0,0,0,0,0,0,100,0,0,0
Kayenta Solar Project,Navajo Tribal Utility Authority,61268,AZ,NWPP,Navajo,36.771944,-110.263889,SUN,SOLAR,WECC,Western Area Power Administration - Desert Southwest Region,WALC,,,,,,,,,,,
Kingman 1,"UNS Electric, Inc",57775,AZ,AZNM,Mohave,35.145833,-114.0675,WND,WIND,WECC,Arizona Public Service Company,AZPS,0,0,0,0,0,0,100,0,0,0,0
Kyrene Generating Station,Salt River Project,147,AZ,AZNM,Maricopa,33.3556,-111.9353,NG,GAS,WECC,Salt River Project,SRP,0,0,100,0,0,0,0,0,0,0,0
La Paz Solar Tower,WAPA-- Western Area Power Administration,58652,AZ,AZNM,La Paz,33.917222,-114.2675,SUN,SOLAR,WECC,Western Area Power Administration - Desert Southwest Region,WALC,,,,,,,,,,,
La Senita,"UNS Electric, Inc",57556,AZ,AZNM,Mohave,35.241675,-114.004591,SUN,SOLAR,WECC,Tucson Electric Power Company,TEPC,0,0,0,0,0,0,0,100,0,0,0
Lake Pleasant WTP,Arizona Public Service Co,58539,AZ,AZNM,Maricopa,33.820556,-112.24,SUN,SOLAR,WECC,Arizona Public Service Company,AZPS,0,0,0,0,0,0,0,100,0,0,0
Luke Solar,Arizona Public Service Co,57324,AZ,AZNM,Maricopa,33.526111,-112.37944,SUN,SOLAR,WECC,Arizona Public Service Company,AZPS,,,,,,,,,,,
Macys Goodyear,Arizona Public Service Co,57673,AZ,AZNM,Maricopa,33.409063,-112.414596,SUN,SOLAR,WECC,Arizona Public Service Company,AZPS,0,0,0,0,0,0,0,100,0,0,0
Maricopa County Community Colleges- Estr,Arizona Public Service Co,60230,AZ,AZNM,Maricopa,33.409803,-112.340297,SUN,SOLAR,WECC,Arizona Public Service Company,AZPS,,,,,,,,,,,
Mesa Solar Array,Salt River Project,58466,AZ,AZNM,Maricopa,33.346944,-111.603056,SUN,SOLAR,WECC,Salt River Project,SRP,,,,,,,,,,,
Mesquite Generating Station,Salt River Project,55481,AZ,AZNM,Maricopa,33.345,-112.864167,NG,GAS,WECC,Salt River Project,SRP,0,0,100,0,0,0,0,0,0,0,0
Mesquite Solar 1,Salt River Project,57707,AZ,AZNM,Maricopa,33.341833,-112.904028,SUN,SOLAR,WECC,Salt River Project,SRP,0,0,0,0,0,0,0,100,0,0,0
"Mesquite Solar 2, LLC",San Diego Gas & Electric Co,60307,AZ,CAMX,Maricopa,33.332777,-112.911388,SUN,SOLAR,WECC,California Independent System Operator,CISO,0,0,0,0,0,0,0,100,0,0,0
"Mesquite Solar 3, LLC",San Diego Gas & Electric Co,60308,AZ,CAMX,Maricopa,33.347583,-112.936805,SUN,SOLAR,WECC,California Independent System Operator,CISO,0,0,0,0,0,0,0,100,0,0,0
Mohave Electric at Fort Mohave,"Mohave Electric Cooperative, I",59819,AZ,AZNM,Mohave,34.9843,-114.5565,SUN,SOLAR,WECC,Western Area Power Administration - Desert Southwest Region,WALC,0,0,0,0,0,0,0,100,0,0,0
Mormon Flat,Salt River Project,148,AZ,AZNM,Maricopa,33.5536,-111.4431,WAT,HYDRO,WECC,Salt River Project,SRP,0,0,0,0,100,0,0,0,0,0,0
Navajo Generating Station,Salt River Project,4941,AZ,AZNM,Coconino,36.9047,-111.3886,BIT,COAL,WECC,Salt River Project,SRP,99.7807137090908,0.219286290909207,0,0,0,0,0,0,0,0,0
"New Harquahala Generating Company, LLC",Salt River Project,55372,AZ,AZNM,Maricopa,33.47596,-113.113434,NG,GAS,WECC,"New Harquahala Generating Company, LLC - HGBA",HGMA,0,0,100,0,0,0,0,0,0,0,0
North Loop,Tucson Electric Power Co,6088,AZ,AZNM,Pima,32.401,-111.1262,NG,GAS,WECC,Tucson Electric Power Company,TEPC,0,0,100,0,0,0,0,0,0,0,0
Northwest Regional,Arizona Public Service Co,57403,AZ,AZNM,Maricopa,33.681944,-112.476666,LFG,BIOMASS,WECC,Arizona Public Service Company,AZPS,0,0,0,0,0,100,0,0,0,0,0
Novo BioPower Plant,Arizona Public Service Co,56616,AZ,AZNM,Navajo,34.503158,-110.334953,WDS,BIOMASS,WECC,Arizona Public Service Company,AZPS,0,0,0.248223410561276,0,0,99.7517765894387,0,0,0,0,0
Ocotillo Power Plant,Arizona Public Service Co,116,AZ,AZNM,Maricopa,33.4225,-111.9122,NG,GAS,WECC,Arizona Public Service Company,AZPS,0,0,99.5221648202081,0,0,0,0,0.477835179791889,0,0,0
Palo Verde,Salt River Project,6008,AZ,AZNM,Maricopa,33.3881,-112.8617,NUC,NUCLEAR,WECC,Salt River Project,SRP,0,0,0,100,0,0,0,0,0,0,0
Paloma Solar,Arizona Public Service Co,57562,AZ,AZNM,Maricopa,33.021111,-112.661389,SUN,SOLAR,WECC,Arizona Public Service Company,AZPS,0,0,0,0,0,0,0,100,0,0,0
Paradise Valley H.S. PV,Arizona Public Service Co,58293,AZ,AZNM,Maricopa,33.6416,-111.9997,SUN,SOLAR,WECC,Arizona Public Service Company,AZPS,0,0,0,0,0,0,0,100,0,0,0
PB2 - Gila River,Arizona Public Service Co,60768,AZ,AZNM,Maricopa,32.975,-112.694444,NG,GAS,WECC,"Gila River Power, LLC",GRMA,0,0,100,0,0,0,0,0,0,0,0
Perrin Ranch Wind LLC,Arizona Public Service Co,58155,AZ,AZNM,Coconino,35.415556,-112.271111,WND,WIND,WECC,Arizona Public Service Company,AZPS,0,0,0,0,0,0,100,0,0,0,0
Phoenix Airport East Economy Lot,Arizona Public Service Co,58708,AZ,AZNM,Maricopa,33.45,-111.98,SUN,SOLAR,WECC,Arizona Public Service Company,AZPS,0,0,0,0,0,0,0,100,0,0,0
Phoenix Airport Rental Car Center,Arizona Public Service Co,58709,AZ,AZNM,Maricopa,33.45,-111.98,SUN,SOLAR,WECC,Arizona Public Service Company,AZPS,0,0,0,0,0,0,0,100,0,0,0
"Picture Rocks Solar, LLC",Tucson Electric Power Co,58486,AZ,AZNM,Pima,32.369722,-111.242778,SUN,SOLAR,WECC,Tucson Electric Power Company,TEPC,0,0,0,0,0,0,0,100,0,0,0
Pima Community College,Tucson Electric Power Co,61104,AZ,AZNM,Pima,32.146142,-110.990639,SUN,SOLAR,WECC,Tucson Electric Power Company,TEPC,,,,,,,,,,,
Pima Energy Storage System,Tucson Electric Power Co,61197,AZ,AZNM,Pima,32.251647,-110.991333,MWH,OTHF,WECC,Tucson Electric Power Company,TEPC,,,,,,,,,,,
Prairie Fire,Tucson Electric Power Co,58171,AZ,AZNM,Pima,32.116389,-110.82,SUN,SOLAR,WECC,Tucson Electric Power Company,TEPC,0,0,0,0,0,0,0,100,0,0,0
Prescott Airport,Arizona Public Service Co,56228,AZ,AZNM,Yavapai,34.6584,-112.4008,SUN,SOLAR,WECC,Arizona Public Service Company,AZPS,0,0,0,0,0,0,0,100,0,0,0
Prescott Solar Plant,Arizona Public Service Co,58147,AZ,AZNM,Yavapai,34.649444,-112.4275,SUN,SOLAR,WECC,Arizona Public Service Company,AZPS,0,0,0,0,0,0,0,100,0,0,0
Queen Creek Solar Farm,Salt River Project,57883,AZ,AZNM,Maricopa,33.2675,-111.612222,SUN,SOLAR,WECC,Salt River Project,SRP,0,0,0,0,0,0,0,100,0,0,0
RE Ajo 1 LLC,Arizona Public Service Co,57795,AZ,AZNM,Pima,32.367013,-112.831401,SUN,SOLAR,WECC,Arizona Public Service Company,AZPS,0,0,0,0,0,0,0,100,0,0,0
RE Bagdad Solar I LLC,Arizona Public Service Co,57790,AZ,AZNM,Yavapai,34.585833,-113.177222,SUN,SOLAR,WECC,Arizona Public Service Company,AZPS,0,0,0,0,0,0,0,100,0,0,0
Red Horse 2,Tucson Electric Power Co,58833,AZ,AZNM,Cochise,32.286111,-110.088056,SUN,SOLAR,WECC,Tucson Electric Power Company,TEPC,0,0,0,0,0,0,29.8871463099933,70.1128536900067,0,0,0
Red Horse III,Tucson Electric Power Co,60285,AZ,AZNM,Cochise,32.13597,-110.05129,SUN,SOLAR,WECC,Tucson Electric Power Company,TEPC,0,0,0,0,0,0,0,100,0,0,0
Red Rock,Arizona Public Service Co,60467,AZ,AZNM,Maricopa,32.551026,-111.289232,SUN,SOLAR,WECC,Arizona Public Service Company,AZPS,,,,,,,,,,,
Redhawk Generating Facility,Salt River Project,55455,AZ,AZNM,Maricopa,33.334562,-112.840641,NG,GAS,WECC,Salt River Project,SRP,0,0,100,0,0,0,0,0,0,0,0
Rio Rico Solar,"UNS Electric, Inc",59044,AZ,AZNM,Santa Cruz,31.5,-111.008056,SUN,SOLAR,WECC,Tucson Electric Power Company,TEPC,0,0,0,0,0,0,0,100,0,0,0
Roger Road WWTP,Tucson Electric Power Co,57524,AZ,AZNM,Pima,32.2894,-111.0331,SUN,SOLAR,WECC,Tucson Electric Power Company,TEPC,0,0,0,0,0,0,0,100,0,0,0
Roosevelt,Salt River Project,149,AZ,AZNM,Maricopa,33.671104,-111.161786,WAT,HYDRO,WECC,Salt River Project,SRP,0,0,0,0,100,0,0,0,0,0,0
Saddle Mountain Solar I,Arizona Public Service Co,58213,AZ,AZNM,Maricopa,33.378333,-113.180833,SUN,SOLAR,WECC,Arizona Public Service Company,AZPS,0,0,0,0,0,0,0,100,0,0,0
Sandstone Solar,Salt River Project,59634,AZ,AZNM,Pinal,33.035556,-111.430278,SUN,SOLAR,WECC,Salt River Project,SRP,0,0,0,0,0,0,0,100,0,0,0
Santan,Salt River Project,8068,AZ,AZNM,Maricopa,33.3325,-111.7503,NG,GAS,WECC,Salt River Project,SRP,0,0,100,0,0,0,0,0,0,0,0
Solana Generating Station,Arizona Public Service Co,56812,AZ,AZNM,Maricopa,32.922294,-112.95594,SUN,SOLAR,WECC,Arizona Public Service Company,AZPS,0,0,0,0,0,0,0,100,0,0,0
South Consolidated,Salt River Project,100,AZ,AZNM,Maricopa,33.466477,-111.781064,WAT,HYDRO,WECC,Salt River Project,SRP,,,,,,,,,,,
"South Point Energy Center, LLC",WAPA-- Western Area Power Administration,55177,AZ,AZNM,Mohave,34.8678,-114.5317,NG,GAS,WECC,Western Area Power Administration - Desert Southwest Region,WALC,0,0,100,0,0,0,0,0,0,0,0
Springerville Generating Station,Tucson Electric Power Co,8223,AZ,AZNM,Apache,34.3186,-109.1639,SUB,COAL,WECC,Tucson Electric Power Company,TEPC,99.6694873506012,0.141282427700168,0,0,0,0,0,0.18923022169858,0,0,0
SR85,Arizona Public Service Co,59444,AZ,AZNM,Maricopa,33.145,-112.66,SUN,SOLAR,WECC,Arizona Public Service Company,AZPS,0,0,0,0,0,0,0,100,0,0,0
Stewart Mountain,Salt River Project,150,AZ,AZNM,Maricopa,33.5661,-111.536,WAT,HYDRO,WECC,Salt River Project,SRP,0,0,0,0,100,0,0,0,0,0,0
Sulphur Springs,Sulphur Springs Valley E C Inc,60381,AZ,AZNM,Cochise,32.0628,-109.919283,SUN,SOLAR,WECC,Western Area Power Administration - Desert Southwest Region,WALC,0,0,0,0,0,0,0,100,0,0,0
"Sun Streams, LLC",Southern California Edison Co,60827,AZ,CAMX,Maricopa,33.34884,-112.8348,SUN,SOLAR,WECC,California Independent System Operator,CISO,,,,,,,,,,,
Sundance Power Plant,WAPA-- Western Area Power Administration,55522,AZ,AZNM,Pinal,32.9285,-111.5899,NG,GAS,WECC,Western Area Power Administration - Desert Southwest Region,WALC,0,0,100,0,0,0,0,0,0,0,0
T0588 Phoenix - AZ,Salt River Project,61199,AZ,AZNM,Maricopa,33.447225,-112.217664,SUN,SOLAR,WECC,Salt River Project,SRP,,,,,,,,,,,
TAA Solar Facility,Tucson Electric Power Co,57391,AZ,AZNM,Pima,32.115833,-110.940833,SUN,SOLAR,WECC,Tucson Electric Power Company,TEPC,,,,,,,,,,,
Tech Park Solar,Tucson Electric Power Co,59455,AZ,AZNM,Pima,32.097884,-110.815696,SUN,SOLAR,WECC,Tucson Electric Power Company,TEPC,0,0,0,0,0,0,0,100,0,0,0
Tri Cities,Salt River Project,7998,AZ,AZNM,Maricopa,33.4833,-111.8172,LFG,BIOMASS,WECC,Salt River Project,SRP,,,,,,,,,,,
UASTP I,Tucson Electric Power Co,57392,AZ,AZNM,Pima,32.096973,-110.8106,SUN,SOLAR,WECC,Tucson Electric Power Company,TEPC,0,0,0,0,0,0,0,100,0,0,0
UASTP II,Tucson Electric Power Co,57717,AZ,AZNM,Pima,32.096973,-110.8106,SUN,SOLAR,WECC,Tucson Electric Power Company,TEPC,0,0,0,0,0,0,0,100,0,0,0
Union HS at Casa Grande,Arizona Public Service Co,58516,AZ,AZNM,Pinal,32.936944,-111.738611,SUN,SOLAR,WECC,Arizona Public Service Company,AZPS,0,0,0,0,0,0,0,100,0,0,0
University of Arizona - Biosphere 2,USBIA-San Carlos Project,54594,AZ,AZNM,Pinal,32.578011,-110.852608,NG,GAS,WECC,Western Area Power Administration - Desert Southwest Region,WALC,0,54.0734693877551,45.9265306122449,0,0,0,0,0,0,0,0
Valencia,"UNS Electric, Inc",6515,AZ,AZNM,Santa Cruz,31.363472,-110.931343,NG,GAS,WECC,Tucson Electric Power Company,TEPC,0,2.17677419354839,97.8232258064516,0,0,0,0,0,0,0,0
Valencia Solar,Tucson Electric Power Co,59454,AZ,AZNM,Pima,32.145833,-110.866944,SUN,SOLAR,WECC,Tucson Electric Power Company,TEPC,0,0,0,0,0,0,0,100,0,0,0
Vista Grande HS at Casa Grande,Arizona Public Service Co,58517,AZ,AZNM,Pinal,32.891389,-111.713056,SUN,SOLAR,WECC,Arizona Public Service Company,AZPS,0,0,0,0,0,0,0,100,0,0,0
Waddell,Arizona Public Service Co,7164,AZ,AZNM,Maricopa,33.8447,-112.2714,WAT,HYDRO,WECC,Western Area Power Administration - Desert Southwest Region,WALC,0,0,0,0,100,0,0,0,0,0,0
Walmart Casa Grande,Arizona Public Service Co,57939,AZ,AZNM,Pinal,32.866837,-111.771751,SUN,SOLAR,WECC,Arizona Public Service Company,AZPS,0,0,0,0,0,0,0,100,0,0,0
Western Renewable Energy,"Navopache Electric Coop, Inc",56358,AZ,AZNM,Apache,34.093006,-109.289979,WDS,BIOMASS,WECC,Arizona Public Service Company,AZPS,,,,,,,,,,,
White Wing Solar,Arizona Public Service Co,60572,AZ,CAMX,Yuma,32.994056,-113.508806,SUN,SOLAR,WECC,California Independent System Operator,CISO,,,,,,,,,,,
Yucca Power Plant,Arizona Public Service Co,120,AZ,AZNM,Yuma,32.7214,-114.7106,NG,GAS,WECC,Arizona Public Service Company,AZPS,0,0.0916430092264017,99.9083569907736,0,0,0,0,0,0,0,0
Yuma Cogeneration Associates,Arizona Public Service Co,54694,AZ,AZNM,Yuma,32.728822,-114.654053,NG,GAS,WECC,Arizona Public Service Company,AZPS,0,0,100,0,0,0,0,0,0,0,0
1420 Coil Av #C,Los Angeles Department of Water & Power,57310,CA,CAMX,Los Angeles,33.794283,-118.241405,SUN,SOLAR,WECC,Los Angeles Department of Water and Power,LDWP,0,0,0,0,0,0,0,100,0,0,0
2081 Terzian Solar Project,Pacific Gas & Electric Co,58918,CA,CAMX,Fresno,36.67,-119.415833,SUN,SOLAR,WECC,California Independent System Operator,CISO,0,0,0,0,0,0,0,100,0,0,0
2097 Helton Solar Project,Pacific Gas & Electric Co,58920,CA,CAMX,Merced,37.352222,-120.506944,SUN,SOLAR,WECC,California Independent System Operator,CISO,0,0,0,0,0,0,0,100,0,0,0
2127 Harris Solar Project,Pacific Gas & Electric Co,58919,CA,CAMX,Butte,39.291667,-121.669722,SUN,SOLAR,WECC,California Independent System Operator,CISO,0,0,0,0,0,0,0,100,0,0,0
2555 E Olympic Bl,Los Angeles Department of Water & Power,57871,CA,CAMX,Los Angeles,34.026944,-118.224167,SUN,SOLAR,WECC,Los Angeles Department of Water and Power,LDWP,0,0,0,0,0,0,0,100,0,0,0
85 A,Southern California Edison Co,52162,CA,CAMX,Kern,35.1011,-118.3372,WND,WIND,WECC,California Independent System Operator,CISO,0,0,0,0,0,0,100,0,0,0,0
85 B,Southern California Edison Co,52163,CA,CAMX,Kern,35.1011,-118.3372,WND,WIND,WECC,California Independent System Operator,CISO,0,0,0,0,0,0,100,0,0,0,0
A G Wishon,Pacific Gas & Electric Co,293,CA,CAMX,Madera,37.15105,-119.504724,WAT,HYDRO,WECC,California Independent System Operator,CISO,0,0,0,0,100,0,0,0,0,0,0
ABEC Bidart-Old River LLC,Pacific Gas & Electric Co,58699,CA,CAMX,Kern,35.169722,-119.105556,OBG,BIOMASS,WECC,California Independent System Operator,CISO,0,0,0,0,0,100,0,0,0,0,0
"Adelanto Solar II, LLC",Southern California Edison Co,59440,CA,CAMX,San Bernardino,34.557222,-117.3775,SUN,SOLAR,WECC,California Independent System Operator,CISO,0,0,0,0,0,0,0,100,0,0,0
Adelanto Solar Project,Intermountain Power Agency,57305,CA,CAMX,San Bernardino,34.550833,-117.435277,SUN,SOLAR,WECC,Los Angeles Department of Water and Power,LDWP,0,0,0,0,0,0,0,100,0,0,0
"Adelanto Solar, LLC",Southern California Edison Co,59441,CA,CAMX,San Bernardino,34.557222,-117.3775,SUN,SOLAR,WECC,California Independent System Operator,CISO,0,0,0,0,0,0,0,100,0,0,0
Adera Solar,Pacific Gas & Electric Co,60027,CA,CAMX,Madera,37.120586,-120.32488,SUN,SOLAR,WECC,California Independent System Operator,CISO,0,0,0,0,0,0,0,100,0,0,0
Adobe San Jose,Pacific Gas & Electric Co,57811,CA,CAMX,Santa Clara,37.330556,-121.893056,NG,GAS,WECC,California Independent System Operator,CISO,0,0,100,0,0,0,0,0,0,0,0
Aera San Ardo Cogen Facility,Pacific Gas & Electric Co,55184,CA,CAMX,Monterey,35.953293,-120.859952,NG,GAS,WECC,California Independent System Operator,CISO,0,0,100,0,0,0,0,0,0,0,0
Aera South Belridge Cogen Facility,Pacific Gas & Electric Co,55185,CA,CAMX,Kern,35.4292,-119.6864,NG,GAS,WECC,California Independent System Operator,CISO,,,,,,,,,,,
Aerojet I,Southern California Edison Co,57697,CA,CAMX,Sacramento,38.613508,-121.162879,SUN,SOLAR,WECC,California Independent System Operator,CISO,0,0,0,0,0,0,0,100,0,0,0
Aerojet II,Southern California Edison Co,57698,CA,CAMX,Sacramento,38.6086,-121.1703,SUN,SOLAR,WECC,California Independent System Operator,CISO,0,0,0,0,0,0,0,100,0,0,0
AES Alamitos,Southern California Edison Co,315,CA,CAMX,Los Angeles,33.7688,-118.1009,NG,GAS,WECC,California Independent System Operator,CISO,0,0,100,0,0,0,0,0,0,0,0
"AES ES ALAMITOS, LLC",Southern California Edison Co,61204,CA,CAMX,Los Angeles,33.770202,-118.099665,MWH,OTHF,WECC,California Independent System Operator,CISO,,,,,,,,,,,
AES Huntington Beach,Southern California Edison Co,335,CA,CAMX,Orange,33.6439,-117.9792,NG,GAS,WECC,California Independent System Operator,CISO,0,0,100,0,0,0,0,0,0,0,0
AES Redondo Beach,Southern California Edison Co,356,CA,CAMX,Los Angeles,33.8504,-118.395,NG,GAS,WECC,California Independent System Operator,CISO,0,0,100,0,0,0,0,0,0,0,0
Agnews Power Plant,Pacific Gas & Electric Co,50748,CA,CAMX,Santa Clara,37.4058,-121.9272,NG,GAS,WECC,California Independent System Operator,CISO,0,0,100,0,0,0,0,0,0,0,0
Agua Mansa Power,City of Colton - (CA),55951,CA,CAMX,San Bernardino,34.0414,-117.3603,NG,GAS,WECC,California Independent System Operator,CISO,0,0,100,0,0,0,0,0,0,0,0
Aidlin Geothermal Power Plant,Pacific Gas & Electric Co,52158,CA,CAMX,Sonoma,38.8339,-122.881,GEO,GEOTHERMAL,WECC,California Independent System Operator,CISO,0,0,0,0,0,0,0,0,100,0,0
Alameda,City of Alameda,7450,CA,CAMX,Alameda,37.7886,-122.2889,NG,GAS,WECC,California Independent System Operator,CISO,0,0,100,0,0,0,0,0,0,0,0
Alamo,Southern California Edison Co,905,CA,CAMX,Los Angeles,34.8158,-118.6867,WAT,HYDRO,WECC,California Independent System Operator,CISO,0,0,0,0,100,0,0,0,0,0,0
Alamo Solar,Southern California Edison Co,59469,CA,CAMX,San Bernardino,34.682222,-117.3475,SUN,SOLAR,WECC,California Independent System Operator,CISO,0,0,0,0,0,0,0,100,0,0,0
Algonquin Power Sanger LLC,Pacific Gas & Electric Co,57564,CA,CAMX,Fresno,36.6842,-119.5522,NG,GAS,WECC,California Independent System Operator,CISO,0,0,100,0,0,0,0,0,0,0,0
"Algonquin SKIC 10 Solar, LLC",Pacific Gas & Electric Co,60242,CA,CAMX,Kern,35.126111,-119.243361,SUN,SOLAR,WECC,California Independent System Operator,CISO,,,,,,,,,,,
Algonquin SKIC20 Solar LLC,Pacific Gas & Electric Co,59412,CA,CAMX,Kern,35.126111,-119.243333,SUN,SOLAR,WECC,California Independent System Operator,CISO,0,0,0,0,0,0,0,100,0,0,0
Aliso Water Management Agency,Southern California Edison Co,10820,CA,CAMX,Orange,33.537922,-117.70585,OBG,BIOMASS,WECC,California Independent System Operator,CISO,0,0,27.5166666666667,0,0,72.4833333333333,0,0,0,0,0
Almond Power Plant,Turlock Irrigation District,7315,CA,CAMX,Stanislaus,37.5744,-120.985,NG,GAS,WECC,Turlock Irrigation District,TIDC,0,0,100,0,0,0,0,0,0,0,0
Alpaugh 50,Pacific Gas & Electric Co,58003,CA,CAMX,Tulare,35.898333,-119.435278,SUN,SOLAR,WECC,California Independent System Operator,CISO,0,0,0,0,0,0,0,100,0,0,0
Alpaugh North,Pacific Gas & Electric Co,58002,CA,CAMX,Tulare,35.9025,-119.442778,SUN,SOLAR,WECC,California Independent System Operator,CISO,0,0,0,0,0,0,0,100,0,0,0
Alpine Solar,Southern California Edison Co,57295,CA,CAMX,Los Angeles,34.7892,-118.5047,SUN,SOLAR,WECC,California Independent System Operator,CISO,0,0,0,0,0,0,0,100,0,0,0
Alta Mesa Project Phase IV,Southern California Edison Co,55352,CA,CAMX,Riverside,33.946389,-116.663333,WND,WIND,WECC,California Independent System Operator,CISO,,,,,,,,,,,
Alta Powerhouse,Pacific Gas & Electric Co,214,CA,CAMX,Placer,39.215979,-120.80355,WAT,HYDRO,WECC,California Independent System Operator,CISO,0,0,0,0,100,0,0,0,0,0,0
Alta Wind Energy Center I,Southern California Edison Co,57282,CA,CAMX,Kern,35.033725,-118.353422,WND,WIND,WECC,California Independent System Operator,CISO,0,0,0,0,0,0,100,0,0,0,0
Alta Wind Energy Center II,Southern California Edison Co,57291,CA,CAMX,Kern,35.023889,-118.295278,WND,WIND,WECC,California Independent System Operator,CISO,0,0,0,0,0,0,100,0,0,0,0
Alta Wind Energy Center III,Southern California Edison Co,57292,CA,CAMX,Kern,35.023889,-118.295278,WND,WIND,WECC,California Independent System Operator,CISO,0,0,0,0,0,0,100,0,0,0,0
Alta Wind Energy Center IV,Southern California Edison Co,57293,CA,CAMX,Kern,35.008611,-118.242222,WND,WIND,WECC,California Independent System Operator,CISO,0,0,0,0,0,0,100,0,0,0,0
Alta Wind Energy Center V,Southern California Edison Co,57294,CA,CAMX,Kern,35.008611,-118.242222,WND,WIND,WECC,California Independent System Operator,CISO,0,0,0,0,0,0,100,0,0,0,0
Alta Wind VIII,Southern California Edison Co,57835,CA,CAMX,Kern,35.026683,-118.234811,WND,WIND,WECC,California Independent System Operator,CISO,0,0,0,0,0,0,100,0,0,0,0
Alta Wind X,Southern California Edison Co,58394,CA,CAMX,Kern,35.06,-118.2,WND,WIND,WECC,California Independent System Operator,CISO,0,0,0,0,0,0,100,0,0,0,0
Alta Wind XI,Southern California Edison Co,58395,CA,CAMX,Kern,35.065,-118.39,WND,WIND,WECC,California Independent System Operator,CISO,0,0,0,0,0,0,100,0,0,0,0
AltaGas Pomona Energy Inc.,Southern California Edison Co,50300,CA,CAMX,Los Angeles,34.059444,-117.774167,NG,GAS,WECC,California Independent System Operator,CISO,0,0,100,0,0,0,0,0,0,0,0
AltaGas Ripon Energy Inc.,Pacific Gas & Electric Co,50299,CA,CAMX,San Joaquin,37.732533,-121.116006,NG,GAS,WECC,California Independent System Operator,CISO,0,0,100,0,0,0,0,0,0,0,0
Altamont Gas Recovery,Pacific Gas & Electric Co,50571,CA,CAMX,Alameda,37.749308,-121.649866,LFG,BIOMASS,WECC,California Independent System Operator,CISO,0,0,0,0,0,100,0,0,0,0,0
Altamont Midway Ltd,Pacific Gas & Electric Co,50001,CA,CAMX,San Joaquin,37.7392,-121.4322,WND,WIND,WECC,California Independent System Operator,CISO,,,,,,,,,,,
Altech III,Southern California Edison Co,50485,CA,CAMX,Riverside,33.915023,-116.555064,WND,WIND,WECC,California Independent System Operator,CISO,0,0,0,0,0,0,100,0,0,0,0
Alvarado Hydro Facility,San Diego Gas & Electric Co,54242,CA,CAMX,San Diego,32.7814,-117.0411,WAT,HYDRO,WECC,California Independent System Operator,CISO,,,,,,,,,,,
Amazon - Patterson PV,Pacific Gas & Electric Co,61377,CA,CAMX,Stanislaus,37.468888,-121.166326,SUN,SOLAR,WECC,Balancing Authority of Northern California,BANC,,,,,,,,,,,
Amazon San Bernardino,Southern California Edison Co,59800,CA,CAMX,San Bernardino,34.088408,-117.245839,NG,GAS,WECC,California Independent System Operator,CISO,0,0,100,0,0,0,0,0,0,0,0
Amedee Geothermal Venture I,Pacific Gas & Electric Co,50964,CA,CAMX,Lassen,40.300833,-120.105,GEO,GEOTHERMAL,WECC,California Independent System Operator,CISO,,,,,,,,,,,
Ameresco Butte County,Pacific Gas & Electric Co,57771,CA,CAMX,Butte,39.674,-121.73,LFG,BIOMASS,WECC,California Independent System Operator,CISO,0,0,0,0,0,100,0,0,0,0,0
Ameresco Chiquita Canyon,Southern California Edison Co,56898,CA,CAMX,Los Angeles,34.431664,-118.642855,LFG,BIOMASS,WECC,California Independent System Operator,CISO,0,0,0,0,0,100,0,0,0,0,0
Ameresco Forward,Pacific Gas & Electric Co,58437,CA,CAMX,San Joaquin,37.883406,-121.185104,LFG,BIOMASS,WECC,California Independent System Operator,CISO,0,0,0,0,0,100,0,0,0,0,0
Ameresco Johnson Canyon,Pacific Gas & Electric Co,58397,CA,CAMX,Monterey,36.534167,-121.408611,LFG,BIOMASS,WECC,California Independent System Operator,CISO,0,0,0,0,0,100,0,0,0,0,0
Ameresco Keller Canyon,Pacific Gas & Electric Co,56897,CA,CAMX,Contra Costa,38.003928,-121.934491,LFG,BIOMASS,WECC,California Independent System Operator,CISO,0,0,0,0,0,100,0,0,0,0,0
Ameresco Ox Mountain,Pacific Gas & Electric Co,56895,CA,CAMX,San Mateo,37.5,-122.4,LFG,BIOMASS,WECC,California Independent System Operator,CISO,0,0,0,0,0,100,0,0,0,0,0
Ameresco San Joaquin,Pacific Gas & Electric Co,58436,CA,CAMX,San Joaquin,38.029722,-120.929722,LFG,BIOMASS,WECC,California Independent System Operator,CISO,0,0,0,0,0,100,0,0,0,0,0
Ameresco Santa Cruz Energy,Pacific Gas & Electric Co,56428,CA,CAMX,Santa Cruz,36.9178,-121.8156,LFG,BIOMASS,WECC,California Independent System Operator,CISO,0,0,0,0,0,100,0,0,0,0,0
Ameresco Vasco Road,Pacific Gas & Electric Co,58435,CA,CAMX,Alameda,37.754444,-121.728889,LFG,BIOMASS,WECC,California Independent System Operator,CISO,0,0,0,0,0,100,0,0,0,0,0
"American Kings Solar, LLC",Pacific Gas & Electric Co,60777,CA,CAMX,Kings,36.24,-119.898,SUN,SOLAR,WECC,California Independent System Operator,CISO,,,,,,,,,,,
Ampersand Chowchilla Biomass LLC,Pacific Gas & Electric Co,56706,CA,CAMX,Madera,37.106668,-120.248504,WDS,BIOMASS,WECC,California Independent System Operator,CISO,0,0,0.113080450429533,0,0,99.8869195495705,0,0,0,0,0
Anaheim Combustion Turbine,City of Anaheim - (CA),7693,CA,CAMX,Orange,33.853542,-117.856286,NG,GAS,WECC,California Independent System Operator,CISO,0,0,100,0,0,0,0,0,0,0,0
Anaheim Solar Energy Plant,City of Anaheim - (CA),59416,CA,CAMX,Orange,33.8025,-117.919722,SUN,SOLAR,WECC,California Independent System Operator,CISO,0,0,0,0,0,0,0,100,0,0,0
Angels,Pacific Gas & Electric Co,215,CA,CAMX,Calaveras,38.071944,-120.539444,WAT,HYDRO,WECC,California Independent System Operator,CISO,0,0,0,0,100,0,0,0,0,0,0
Anheuser-Busch #2,Pacific Gas & Electric Co,59331,CA,CAMX,Solano,38.233611,-122.0925,WND,WIND,WECC,California Independent System Operator,CISO,0,0,0,0,0,0,100,0,0,0,0
Antelope Big Sky Ranch,Southern California Edison Co,60279,CA,CAMX,Los Angeles,34.694839,-118.28769,SUN,SOLAR,WECC,California Independent System Operator,CISO,0,0,0,0,0,0,0,100,0,0,0
Antelope DSR 1,Southern California Edison Co,60186,CA,CAMX,Los Angeles,34.655556,-118.280722,SUN,SOLAR,WECC,California Independent System Operator,CISO,0,0,0,0,0,0,0,100,0,0,0
Antelope DSR 2,Southern California Edison Co,60187,CA,CAMX,Los Angeles,34.686944,-118.311722,SUN,SOLAR,WECC,California Independent System Operator,CISO,0,0,0,0,0,0,0,100,0,0,0
Antelope DSR 3,Southern California Edison Co,61265,CA,CAMX,Los Angeles,34.736859,-118.304071,SUN,SOLAR,WECC,California Independent System Operator,CISO,,,,,,,,,,,
Antelope Expansion 2,Southern California Edison Co,61264,CA,CAMX,Los Angeles,34.744977,-118.309153,SUN,SOLAR,WECC,California Independent System Operator,CISO,,,,,,,,,,,
"AP North Lake I, LP",Southern California Edison Co,59610,CA,CAMX,Riverside,33.74,-117.010556,SUN,SOLAR,WECC,California Independent System Operator,CISO,,,,,,,,,,,
Apple Campus 2 Fuel Cell,Pacific Gas & Electric Co,59557,CA,CAMX,Santa Clara,37.33,-122.01,OBG,BIOMASS,WECC,California Independent System Operator,CISO,,,,,,,,,,,
Apple Campus 2 PV,Pacific Gas & Electric Co,59473,CA,CAMX,Santa Clara,37.33,-122.01,SUN,SOLAR,WECC,California Independent System Operator,CISO,,,,,,,,,,,
Argus Cogen Plant,Southern California Edison Co,10684,CA,CAMX,San Bernardino,35.765,-117.3833,RC,COAL,WECC,California Independent System Operator,CISO,97.8272703911938,0,2.17272960880626,0,0,0,0,0,0,0,0
Arrache 4006,Southern California Edison Co,58445,CA,CAMX,Los Angeles,34.655,-118.051111,SUN,SOLAR,WECC,California Independent System Operator,CISO,0,0,0,0,0,0,0,100,0,0,0
Arrache 4013,Southern California Edison Co,58446,CA,CAMX,Los Angeles,34.650556,-118.051944,SUN,SOLAR,WECC,California Independent System Operator,CISO,0,0,0,0,0,0,0,100,0,0,0
Arrache 8083,Southern California Edison Co,58447,CA,CAMX,Los Angeles,34.647778,-118.061111,SUN,SOLAR,WECC,California Independent System Operator,CISO,0,0,0,0,0,0,0,100,0,0,0
Aspiration G,Southern California Edison Co,59737,CA,CAMX,Fresno,36.552186,-120.352481,SUN,SOLAR,WECC,California Independent System Operator,CISO,,,,,,,,,,,
ASTI,Pacific Gas & Electric Co,58889,CA,CAMX,Sonoma,38.761389,-122.975278,SUN,SOLAR,WECC,California Independent System Operator,CISO,0,0,0,0,0,0,0,100,0,0,0
AT&T Anaheim,City of Anaheim - (CA),61154,CA,CAMX,Orange,33.836439,-117.916893,NG,GAS,WECC,California Independent System Operator,CISO,0,0,100,0,0,0,0,0,0,0,0
AT&T Holger,Pacific Gas & Electric Co,61153,CA,CAMX,Santa Clara,37.417638,-121.94453,NG,GAS,WECC,California Independent System Operator,CISO,0,0,100,0,0,0,0,0,0,0,0
Atwell Island,Pacific Gas & Electric Co,58366,CA,CAMX,Tulare,35.895,-119.510833,SUN,SOLAR,WECC,California Independent System Operator,CISO,0,0,0,0,0,0,0,100,0,0,0
Atwell Island West Solar,Pacific Gas & Electric Co,59414,CA,CAMX,Tulare,35.815,-119.459722,SUN,SOLAR,WECC,California Independent System Operator,CISO,0,0,0,0,0,0,0,100,0,0,0
AV Solar Ranch One,Southern California Edison Co,57378,CA,CAMX,Los Angeles,34.780278,-118.42444,SUN,SOLAR,WECC,California Independent System Operator,CISO,0,0,0,0,0,0,0,100,0,0,0
Avenal Park,Pacific Gas & Electric Co,57359,CA,CAMX,Kings,35.989722,-120.11,SUN,SOLAR,WECC,California Independent System Operator,CISO,0,0,0,0,0,0,0,100,0,0,0
AVS Lancaster 1,Southern California Edison Co,60085,CA,CAMX,Los Angeles,34.748894,-117.973571,SUN,SOLAR,WECC,California Independent System Operator,CISO,,,,,,,,,,,
Azusa,Southern California Edison Co,6449,CA,CAMX,Los Angeles,34.1548,-117.9093,WAT,HYDRO,WECC,California Independent System Operator,CISO,,,,,,,,,,,
B Braun Medical,Southern California Edison Co,50200,CA,CAMX,Orange,33.688721,-117.834793,NG,GAS,WECC,California Independent System Operator,CISO,0,0,100,0,0,0,0,0,0,0,0
Badger Creek Limited,Pacific Gas & Electric Co,10650,CA,CAMX,Kern,35.483736,-119.029856,NG,GAS,WECC,California Independent System Operator,CISO,0,0,100,0,0,0,0,0,0,0,0
Baker Creek Hydroelectric,Pacific Gas & Electric Co,59428,CA,CAMX,Humboldt,40.526389,-123.725556,WAT,HYDRO,WECC,California Independent System Operator,CISO,0,0,0,0,100,0,0,0,0,0,0
Bakersfield 111,Pacific Gas & Electric Co,59948,CA,NWPP,Kern,35.317551,-118.989894,SUN,SOLAR,WECC,PacifiCorp - West,PACW,0,0,0,0,0,0,0,100,0,0,0
Bakersfield College Solar 01,Pacific Gas & Electric Co,57655,CA,CAMX,Kern,35.411817,-118.96864,SUN,SOLAR,WECC,California Independent System Operator,CISO,0,0,0,0,0,0,0,100,0,0,0
Bakersfield Industrial PV 1,Pacific Gas & Electric Co,61118,CA,CAMX,Kern,35.330032,-118.993119,SUN,SOLAR,WECC,California Independent System Operator,CISO,,,,,,,,,,,
Bakersfield PV 1,Pacific Gas & Electric Co,61117,CA,CAMX,Kern,35.324982,-118.981522,SUN,SOLAR,WECC,California Independent System Operator,CISO,,,,,,,,,,,
Balch 1,Pacific Gas & Electric Co,217,CA,CAMX,Fresno,36.909137,-119.087712,WAT,HYDRO,WECC,California Independent System Operator,CISO,0,0,0,0,100,0,0,0,0,0,0
Balch 2,Pacific Gas & Electric Co,218,CA,CAMX,Fresno,36.908907,-119.087556,WAT,HYDRO,WECC,California Independent System Operator,CISO,0,0,0,0,100,0,0,0,0,0,0
Barre Generating Station,Southern California Edison Co,56474,CA,CAMX,Orange,33.8073,-117.9832,NG,GAS,WECC,California Independent System Operator,CISO,0,0,100,0,0,0,0,0,0,0,0
"Bayshore Solar A, LLC",Southern California Edison Co,60481,CA,CAMX,Los Angeles,34.667817,-118.298089,SUN,SOLAR,WECC,California Independent System Operator,CISO,,,,,,,,,,,
"Bayshore Solar B, LLC",Southern California Edison Co,60474,CA,CAMX,Los Angeles,34.678305,-118.302649,SUN,SOLAR,WECC,California Independent System Operator,CISO,,,,,,,,,,,
"Bayshore Solar C, LLC",Southern California Edison Co,60475,CA,CAMX,Los Angeles,34.681338,-118.314087,SUN,SOLAR,WECC,California Independent System Operator,CISO,,,,,,,,,,,
Beacon BESS 1,Los Angeles Department of Water & Power,61431,CA,CAMX,Kern,35.256526,-118.027519,MWH,OTHF,WECC,Los Angeles Department of Water and Power,LDWP,,,,,,,,,,,
Beacon Solar Plant Site 2,Los Angeles Department of Water & Power,59309,CA,CAMX,Kern,35.265833,-117.999167,SUN,SOLAR,WECC,Los Angeles Department of Water and Power,LDWP,,,,,,,,,,,
Beacon Solar Plant Site 5,Los Angeles Department of Water & Power,59308,CA,CAMX,Kern,35.248889,-118.034444,SUN,SOLAR,WECC,Los Angeles Department of Water and Power,LDWP,,,,,,,,,,,
Bear Canyon Power Plant,Pacific Gas & Electric Co,10469,CA,CAMX,Lake,38.762968,-122.692915,GEO,GEOTHERMAL,WECC,California Independent System Operator,CISO,,,,,,,,,,,
Bear Creek,Pacific Gas & Electric Co,50156,CA,CAMX,Shasta,40.534454,-121.959109,WAT,HYDRO,WECC,California Independent System Operator,CISO,0,0,0,0,100,0,0,0,0,0,0
Bear Creek Solar,Pacific Gas & Electric Co,58508,CA,CAMX,San Joaquin,38.136389,-121.148889,SUN,SOLAR,WECC,California Independent System Operator,CISO,0,0,0,0,0,0,0,100,0,0,0
Bear Mountain Limited,Pacific Gas & Electric Co,10649,CA,CAMX,Kern,35.419181,-118.926643,NG,GAS,WECC,California Independent System Operator,CISO,0,0,100,0,0,0,0,0,0,0,0
Bear Valley,San Diego Gas & Electric Co,457,CA,CAMX,San Diego,33.166246,-117.016566,WAT,HYDRO,WECC,California Independent System Operator,CISO,0,0,0,0,100,0,0,0,0,0,0
Bear Valley Power Plant,Bear Valley Electric Service,56346,CA,CAMX,San Bernardino,34.2506,-116.9025,NG,GAS,WECC,California Independent System Operator,CISO,,,,,,,,,,,
Beardsley,Pacific Gas & Electric Co,414,CA,CAMX,Tuolumne,38.202569,-120.076983,WAT,HYDRO,WECC,California Independent System Operator,CISO,0,0,0,0,100,0,0,0,0,0,0
Belden,Pacific Gas & Electric Co,219,CA,CAMX,Plumas,40.007445,-121.249438,WAT,HYDRO,WECC,California Independent System Operator,CISO,0,0,0,0,100,0,0,0,0,0,0
Beringer,Pacific Gas & Electric Co,58890,CA,CAMX,Sonoma,38.510833,-122.479722,SUN,SOLAR,WECC,California Independent System Operator,CISO,0,0,0,0,0,0,0,100,0,0,0
Berry Cogen,Pacific Gas & Electric Co,50170,CA,CAMX,Kern,35.093046,-119.443617,NG,GAS,WECC,California Independent System Operator,CISO,0,0,100,0,0,0,0,0,0,0,0
Berry Cogen Tanne Hills 18,Pacific Gas & Electric Co,50622,CA,CAMX,Kern,35.089829,-119.440881,NG,GAS,WECC,California Independent System Operator,CISO,0,0,100,0,0,0,0,0,0,0,0
Berry Placerita Cogen,Southern California Edison Co,52096,CA,CAMX,Los Angeles,34.38407,-118.494882,NG,GAS,WECC,California Independent System Operator,CISO,0,0,100,0,0,0,0,0,0,0,0
Bidwell Ditch Project,Pacific Gas & Electric Co,10880,CA,CAMX,Shasta,40.8014,-121.4481,WAT,HYDRO,WECC,California Independent System Operator,CISO,0,0,0,0,100,0,0,0,0,0,0
Big Creek 1,Southern California Edison Co,317,CA,CAMX,Fresno,37.2042,-119.2396,WAT,HYDRO,WECC,California Independent System Operator,CISO,0,0,0,0,100,0,0,0,0,0,0
Big Creek 2,Southern California Edison Co,318,CA,CAMX,Fresno,37.2,-119.3069,WAT,HYDRO,WECC,California Independent System Operator,CISO,0,0,0,0,100,0,0,0,0,0,0
Big Creek 2A,Southern California Edison Co,322,CA,CAMX,Fresno,37.200062,-119.30681,WAT,HYDRO,WECC,California Independent System Operator,CISO,0,0,0,0,100,0,0,0,0,0,0
Big Creek 3,Southern California Edison Co,319,CA,CAMX,Fresno,37.148517,-119.386623,WAT,HYDRO,WECC,California Independent System Operator,CISO,0,0,0,0,100,0,0,0,0,0,0
Big Creek 4,Southern California Edison Co,320,CA,CAMX,Madera,37.139,-119.4898,WAT,HYDRO,WECC,California Independent System Operator,CISO,0,0,0,0,100,0,0,0,0,0,0
Big Creek 8,Southern California Edison Co,321,CA,CAMX,Fresno,37.2096,-119.3289,WAT,HYDRO,WECC,California Independent System Operator,CISO,0,0,0,0,100,0,0,0,0,0,0
Big Creek Water Works,Pacific Gas & Electric Co,10282,CA,CAMX,Trinity,40.646733,-123.498008,WAT,HYDRO,WECC,California Independent System Operator,CISO,0,0,0,0,100,0,0,0,0,0,0
Big Pine Creek,Los Angeles Department of Water & Power,391,CA,CAMX,Inyo,37.142795,-118.324075,WAT,HYDRO,WECC,Los Angeles Department of Water and Power,LDWP,0,0,0,0,100,0,0,0,0,0,0
Big Valley Power LLC,Pacific Gas & Electric Co,10288,CA,CAMX,Lassen,41.1325,-121.137222,WDS,BIOMASS,WECC,California Independent System Operator,CISO,,,,,,,,,,,
Biola University,Southern California Edison Co,54296,CA,CAMX,Los Angeles,33.906953,-118.013105,NG,GAS,WECC,California Independent System Operator,CISO,0,0,100,0,0,0,0,0,0,0,0
Bishop Creek 2,Southern California Edison Co,323,CA,CAMX,Inyo,37.273581,-118.573339,WAT,HYDRO,WECC,California Independent System Operator,CISO,0,0,0,0,100,0,0,0,0,0,0
Bishop Creek 3,Southern California Edison Co,324,CA,CAMX,Inyo,37.301962,-118.531957,WAT,HYDRO,WECC,California Independent System Operator,CISO,0,0,0,0,100,0,0,0,0,0,0
Bishop Creek 4,Southern California Edison Co,325,CA,CAMX,Inyo,37.323035,-118.501714,WAT,HYDRO,WECC,California Independent System Operator,CISO,0,0,0,0,100,0,0,0,0,0,0
Bishop Creek 5,Southern California Edison Co,326,CA,CAMX,Inyo,37.3344,-118.4797,WAT,HYDRO,WECC,California Independent System Operator,CISO,0,0,0,0,100,0,0,0,0,0,0
Bishop Creek 6,Southern California Edison Co,327,CA,CAMX,Inyo,37.3499,-118.4628,WAT,HYDRO,WECC,California Independent System Operator,CISO,0,0,0,0,100,0,0,0,0,0,0
Black Butte,City of Santa Clara - (CA),7229,CA,CAMX,Tehama,39.814905,-122.332335,WAT,HYDRO,WECC,California Independent System Operator,CISO,0,0,0,0,100,0,0,0,0,0,0
Black Rock I,Imperial Irrigation District,57477,CA,CAMX,Imperial,33.1594,-115.6144,GEO,GEOTHERMAL,WECC,California Independent System Operator,CISO,,,,,,,,,,,
Black Rock II,Imperial Irrigation District,57478,CA,CAMX,Imperial,33.1594,-115.6144,GEO,GEOTHERMAL,WECC,California Independent System Operator,CISO,,,,,,,,,,,
Black Rock III,Imperial Irrigation District,57479,CA,CAMX,Imperial,33.1594,-115.6144,GEO,GEOTHERMAL,WECC,California Independent System Operator,CISO,,,,,,,,,,,
Blacksand Generating Facility,Southern California Edison Co,56090,CA,CAMX,Orange,33.9328,-117.855,OG,OFSL,WECC,California Independent System Operator,CISO,0,0,0,0,0,0,0,0,0,100,0
Blackwell Solar Park,Pacific Gas & Electric Co,59524,CA,CAMX,Kern,35.604167,-119.849722,SUN,SOLAR,WECC,California Independent System Operator,CISO,,,,,,,,,,,
Blue Lake Power LLC,Pacific Gas & Electric Co,10764,CA,CAMX,Humboldt,40.8786,-123.9942,WDS,BIOMASS,WECC,California Independent System Operator,CISO,0,0,21.142,0,0,78.858,0,0,0,0,0
Blythe Energy,Southern California Edison Co,55295,CA,CAMX,Riverside,33.6157,-114.6865,NG,GAS,WECC,California Independent System Operator,CISO,0,0,100,0,0,0,0,0,0,0,0
"Blythe Solar 110, LLC",Southern California Edison Co,60093,CA,CAMX,Riverside,33.68,-114.742,SUN,SOLAR,WECC,California Independent System Operator,CISO,0,0,0,0,0,0,0,100,0,0,0
"Blythe Solar II, LLC",Southern California Edison Co,60092,CA,CAMX,Riverside,33.68,-114.73,SUN,SOLAR,WECC,California Independent System Operator,CISO,0,0,0,0,0,0,0,100,0,0,0
"Blythe Solar III, LLC",Southern California Edison Co,60094,CA,CAMX,Riverside,33.656,-114.742,SUN,SOLAR,WECC,California Independent System Operator,CISO,,,,,,,,,,,
"Blythe Solar IV, LLC",Southern California Edison Co,60095,CA,CAMX,Riverside,33.682,-114.768,SUN,SOLAR,WECC,California Independent System Operator,CISO,,,,,,,,,,,
Bolthouse S&P and Rowen Farms Solar,Southern California Edison Co,56862,CA,CAMX,Los Angeles,34.5644,-117.6933,SUN,SOLAR,WECC,California Independent System Operator,CISO,0,0,0,0,0,0,0,100,0,0,0
Borden Solar Farm,Pacific Gas & Electric Co,59531,CA,CAMX,Madera,36.941111,-119.96,SUN,SOLAR,WECC,California Independent System Operator,CISO,,,,,,,,,,,
Borel,Southern California Edison Co,328,CA,CAMX,Kern,35.588069,-118.524804,WAT,HYDRO,WECC,California Independent System Operator,CISO,,,,,,,,,,,
Borrego Springs Energy Storage,San Diego Gas & Electric Co,60565,CA,CAMX,San Diego,33.27011,-116.3496,MWH,OTHF,WECC,California Independent System Operator,CISO,,,,,,,,,,,
Bottle Rock Power,Pacific Gas & Electric Co,902,CA,CAMX,Lake,38.8348,-122.7677,GEO,GEOTHERMAL,WECC,California Independent System Operator,CISO,,,,,,,,,,,
"Bowerman Power LFG, LLC",Southern California Edison Co,59461,CA,CAMX,Orange,33.718889,-117.702222,LFG,BIOMASS,WECC,California Independent System Operator,CISO,0,0,0,0,0,100,0,0,0,0,0
Bowman,Pacific Gas & Electric Co,50546,CA,CAMX,Nevada,39.448352,-120.653417,WAT,HYDRO,WECC,California Independent System Operator,CISO,0,0,0,0,100,0,0,0,0,0,0
Box Canyon Dam,PacifiCorp,50179,CA,NWPP,Siskiyou,41.2792,-122.3292,WAT,HYDRO,WECC,PacifiCorp - West,PACW,0,0,0,0,100,0,0,0,0,0,0
BP Carson Refinery,Southern California Edison Co,50540,CA,CAMX,Los Angeles,33.8153,-118.2358,OG,OFSL,WECC,California Independent System Operator,CISO,,,,,,,,,,,
Bradley Gas Recovery,Los Angeles City of,56533,CA,CAMX,Los Angeles,34.2356,-118.3806,LFG,BIOMASS,WECC,Los Angeles Department of Water and Power,LDWP,,,,,,,,,,,
Brawley,Imperial Irrigation District,383,CA,AZNM,Imperial,32.968889,-115.534444,DFO,OIL,WECC,Imperial Irrigation District,IID,,,,,,,,,,,
Brea Expansion Plant,Southern California Edison Co,58007,CA,CAMX,Orange,33.932022,-117.840233,LFG,BIOMASS,WECC,California Independent System Operator,CISO,0,0,0,0,0,100,0,0,0,0,0
Britton Powerhouse,Pacific Gas & Electric Co,56820,CA,CAMX,Shasta,41.021389,-121.675,WAT,HYDRO,WECC,California Independent System Operator,CISO,,,,,,,,,,,
Broadridge Cogen,Pacific Gas & Electric Co,57580,CA,CAMX,El Dorado,38.6183,-121.0564,NG,GAS,WECC,California Independent System Operator,CISO,0,0,100,0,0,0,0,0,0,0,0
Broadway,City of Pasadena - (CA),420,CA,CAMX,Los Angeles,34.1254,-118.148,NG,GAS,WECC,California Independent System Operator,CISO,0,0,100,0,0,0,0,0,0,0,0
