FacilityName,Plant operator name,FacilityID,State,eGRID subregion acronym,Plant county name,Plant latitude,Plant longitude,Plant primary fuel,Plant primary coal/oil/gas/ other fossil fuel category,NERC region acronym
7-Mile Ridge Wind Project,Alaska Power and Telephone Co,60814,AK,AKMS,Southeast Fairbanks,63.210689,-143.247156,WND,WIND,
Agrium Kenai Nitrogen Operations,Homer Electric Assn Inc,54452,AK,AKGD,Kenai Peninsula,60.6732,-151.3784,NG,GAS,ASCC
Alakanuk,"Alaska Village Elec Coop, Inc",57053,AK,AKMS,Wade Hampton,62.6833,-164.6544,DFO,OIL,ASCC
Allison Creek Hydro,"Copper Valley Elec Assn, Inc",58982,AK,AKMS,Valdez Cordova,61.084444,-146.353333,WAT,HYDRO,ASCC
Ambler,"Alaska Village Elec Coop, Inc",60243,AK,AKMS,Northwest Arctic,67.08798,-157.856719,DFO,OIL,
Anchorage 1,Anchorage Municipal Light and Power,75,AK,AKGD,Anchorage,61.2221,-149.8661,NG,GAS,ASCC
Angoon,"Inside Passage Elec Coop, Inc",7462,AK,AKMS,Hoonah-Angoon,57.499166,-134.58614,DFO,OIL,ASCC
Aniak,Aniak Light & Power Co Inc,7182,AK,AKMS,Bethel,61.580678,-159.535643,DFO,OIL,ASCC
Annex Creek,Alaska Electric Light&Power Co,62,AK,AKMS,Juneau,58.3176,-134.101,WAT,HYDRO,ASCC
Auke Bay,Alaska Electric Light&Power Co,7250,AK,AKMS,Juneau,58.3875,-134.6446,DFO,OIL,ASCC
Aurora Energy LLC Chena,Golden Valley Elec Assn Inc,79,AK,AKGD,Fairbanks North Star,64.847743,-147.735063,SUB,COAL,ASCC
Barrow,"Barrow Utils & Elec Coop, Inc",7173,AK,AKMS,North Slope,71.292,-156.7786,NG,GAS,ASCC
Battery Energy Storage System,Golden Valley Elec Assn Inc,57583,AK,AKGD,Fairbanks North Star,64.8167,-147.725,MWH,OTHF,ASCC
Beaver Falls,Ketchikan Public Utilities,6580,AK,AKMS,Ketchikan Gateway,55.37975,-131.470269,WAT,HYDRO,ASCC
Beluga,Chugach Electric Assn Inc,96,AK,AKGD,Kenai Peninsula,61.1861,-151.0356,NG,GAS,ASCC
Bernice Lake,Alaska Electric & Energy Coop,6292,AK,AKGD,Kenai Peninsula,60.6935,-151.3874,NG,GAS,ASCC
Bethel,"Alaska Village Elec Coop, Inc",6566,AK,AKMS,Bethel,60.7897,-161.787778,DFO,OIL,ASCC
Black Bear Lake,Alaska Power and Telephone Co,7752,AK,AKMS,Prince of Wales-Hyder,55.476472,-133.14772,WAT,HYDRO,ASCC
Blue Lake Hydro,City & Borough of Sitka - (AK),93,AK,AKMS,Sitka,57.0516,-135.2297,WAT,HYDRO,ASCC
Bradley Lake,Alaska Electric & Energy Coop,7367,AK,AKGD,Kenai Peninsula,59.77862,-150.94015,WAT,HYDRO,ASCC
Brevig Mission,"Alaska Village Elec Coop, Inc",60260,AK,AKMS,Nome,65.331716,-166.479506,DFO,OIL,
Centennial,Metlakatla Power & Light,7112,AK,AKMS,Prince of Wales-Hyder,55.121433,-131.560267,DFO,OIL,ASCC
Chester Lake,Metlakatla Power & Light,7168,AK,AKMS,Prince of Wales-Hyder,55.116879,-131.545879,WAT,HYDRO,ASCC
Chevak,"Alaska Village Elec Coop, Inc",6311,AK,AKMS,Bethel,61.525297,-165.590152,DFO,OIL,ASCC
Cooper Lake,Chugach Electric Assn Inc,6291,AK,AKGD,Kenai Peninsula,60.392331,-149.665603,WAT,HYDRO,ASCC
Craig (AK),Alaska Power and Telephone Co,421,AK,AKMS,Prince of Wales-Hyder,55.47691,-133.14869,DFO,OIL,ASCC
Delta Power,Golden Valley Elec Assn Inc,56325,AK,AKGD,Southeast Fairbanks,64.028056,-145.719444,DFO,OIL,ASCC
Delta Wind Farm,Golden Valley Elec Assn Inc,58511,AK,AKGD,Southeast Fairbanks,64.013889,-145.596667,WND,WIND,ASCC
Dillingham,"Nushagak Electric Coop, Inc",109,AK,AKMS,Dillingham,59.042914,-158.468597,DFO,OIL,ASCC
Dutch Harbor,City of Unalaska - (AK),7502,AK,AKMS,Aleutians West,53.892459,-166.538185,DFO,OIL,ASCC
Eielson AFB Central Heat & Power Plant,Golden Valley Elec Assn Inc,50392,AK,AKGD,Fairbanks North Star,64.67141,-147.075988,SUB,COAL,ASCC
Eklutna Generation Station,Matanuska Electric Assn Inc,58989,AK,AKGD,Anchorage,61.457778,-149.351389,NG,GAS,ASCC
Eklutna Hydro Project,Chugach Electric Assn Inc,77,AK,AKGD,Matanuska Susitna,61.475211,-149.15009,WAT,HYDRO,ASCC
Elim,"Alaska Village Elec Coop, Inc",57060,AK,AKMS,Nome,64.616558,-162.263717,DFO,OIL,ASCC
Emmonak,"Alaska Village Elec Coop, Inc",6314,AK,AKMS,Wade Hampton,62.777694,-164.531517,DFO,OIL,ASCC
ESS Battery,Kodiak Electric Assn Inc,58405,AK,AKMS,Kodiak Island,57.799167,-152.404167,MWH,OTHF,ASCC
Eva Creek Wind,Golden Valley Elec Assn Inc,57935,AK,AKGD,Denali,64.058333,-148.9,WND,WIND,ASCC
Fairbanks,Golden Valley Elec Assn Inc,6286,AK,AKGD,Fairbanks North Star,64.854171,-147.719351,DFO,OIL,ASCC
False Island,Alaska Power and Telephone Co,56146,AK,AKMS,Prince of Wales-Hyder,55.48918,-133.1345,DFO,OIL,ASCC
Fire Island Wind,Chugach Electric Assn Inc,58425,AK,AKGD,Anchorage,61.13,-150.243611,WND,WIND,ASCC
Flywheel Energy Storage System,Kodiak Electric Assn Inc,60563,AK,AKMS,Kodiak Island,57.780114,-152.443783,MWH,OTHF,
Fort Greely Power Plant,Golden Valley Elec Assn Inc,54834,AK,AKGD,Southeast Fairbanks,63.973572,-145.716581,DFO,OIL,ASCC
Galena Electric Utility,Galena Electric Utility,7437,AK,AKMS,Yukon Koyukuk,64.74417,-156.8736,DFO,OIL,ASCC
Gambell,"Alaska Village Elec Coop, Inc",57062,AK,AKMS,Nome,63.777058,-171.712439,DFO,OIL,ASCC
George M Sullivan Generation Plant 2,Anchorage Municipal Light and Power,6559,AK,AKGD,Anchorage,61.229713,-149.716744,NG,GAS,ASCC
Glennallen,"Copper Valley Elec Assn, Inc",6305,AK,AKMS,Valdez Cordova,62.110415,-145.532529,DFO,OIL,ASCC
Goat Lake Hydro,Alaska Power and Telephone Co,7751,AK,AKMS,Skagway,59.5357,-135.2123,WAT,HYDRO,ASCC
Gold Creek,Alaska Electric Light&Power Co,63,AK,AKMS,Juneau,58.3107,-134.4174,WAT,HYDRO,ASCC
Green Lake,City & Borough of Sitka - (AK),313,AK,AKMS,Sitka,56.986284,-135.12275,WAT,HYDRO,ASCC
Gwitchyaa Zhee,Gwitchyaa Zhee Utility Co,7174,AK,AKMS,Yukon Koyukuk,66.566287,-145.253052,DFO,OIL,ASCC
Haines,Alaska Power and Telephone Co,69,AK,AKMS,Haines,59.235931,-135.446228,DFO,OIL,ASCC
Healy,Golden Valley Elec Assn Inc,6288,AK,AKGD,Denali,63.8542,-148.95,LIG,COAL,ASCC
Hiilangaay Hydro,Alaska Power and Telephone Co,59037,AK,AKMS,Prince of Wales-Hyder,55.216389,-132.603611,WAT,HYDRO,ASCC
Hoonah,"Inside Passage Elec Coop, Inc",7463,AK,AKMS,Hoonah-Angoon,58.106432,-135.43074,DFO,OIL,ASCC
Hooper Bay,"Alaska Village Elec Coop, Inc",6319,AK,AKMS,Bethel,61.530858,-166.101944,DFO,OIL,ASCC
Humpback Creek,"Cordova Electric Coop, Inc",7042,AK,AKMS,Valdez Cordova,60.612822,-145.679411,WAT,HYDRO,ASCC
Hydaburg,Alaska Power and Telephone Co,423,AK,AKMS,Prince of Wales-Hyder,55.204937,-132.821435,DFO,OIL,ASCC
Industrial Plant,Alaska Electric Light&Power Co,59793,AK,AKMS,Juneau,58.367635,-134.60802,DFO,OIL,ASCC
International,Chugach Electric Assn Inc,6293,AK,AKGD,Anchorage,61.168972,-149.911038,NG,GAS,ASCC
Jarvis Street,City & Borough of Sitka - (AK),6801,AK,AKMS,Sitka,57.0497,-135.3128,DFO,OIL,ASCC
JBER Landfill Gas Power Plant,Anchorage Municipal Light and Power,58380,AK,AKGD,Anchorage,61.286,-149.61,LFG,BIOMASS,ASCC
Kake,"Inside Passage Elec Coop, Inc",7464,AK,AKMS,Petersburg,56.962983,-133.922557,DFO,OIL,ASCC
Kasidaya Creek Hydro,Alaska Power and Telephone Co,56542,AK,AKMS,Skagway,59.4072,-135.3408,WAT,HYDRO,ASCC
Kasigluk,"Alaska Village Elec Coop, Inc",57066,AK,AKMS,Bethel,60.8731,-162.5197,DFO,OIL,ASCC
Ketchikan,Ketchikan Public Utilities,84,AK,AKMS,Ketchikan Gateway,55.344641,-131.633425,WAT,HYDRO,ASCC
Kiana,"Alaska Village Elec Coop, Inc",6323,AK,AKMS,Northwest Arctic,66.973889,-160.428592,DFO,OIL,ASCC
King Cove,City of King Cove,7493,AK,AKMS,Aleutians East,55.061683,-162.3103,WAT,HYDRO,ASCC
Kivalina,"Alaska Village Elec Coop, Inc",57065,AK,AKMS,Northwest Arctic,67.726644,-164.538447,DFO,OIL,ASCC
Klawock,,7466,AK,AKMS,Prince of Wales-Hyder,55.557778,-132.981389,DFO,OIL,ASCC
Kodiak,Kodiak Electric Assn Inc,6281,AK,AKMS,Kodiak Island,57.789956,-152.396982,DFO,OIL,ASCC
Kotlik,"Alaska Village Elec Coop, Inc",57064,AK,AKMS,Wade Hampton,63.03215,-163.553106,DFO,OIL,ASCC
Kotzebue,Kotzebue Electric Assn Inc,6304,AK,AKMS,Northwest Arctic,66.837778,-162.556944,DFO,OIL,ASCC
Koyuk,"Alaska Village Elec Coop, Inc",57059,AK,AKMS,Nome,64.932089,-161.167103,DFO,OIL,ASCC
Lake Dorothy Hydroelectric Project,Alaska Electric Light&Power Co,57085,AK,AKMS,Juneau,58.2325,-134.0533,WAT,HYDRO,ASCC
Lemon Creek,Alaska Electric Light&Power Co,64,AK,AKMS,Juneau,58.3536,-134.4953,DFO,OIL,ASCC
Mahoney Lake Hydroelectric,Ketchikan Public Utilities,59027,AK,AKMS,Ketchikan Gateway,55.419444,-131.537778,WAT,HYDRO,ASCC
Marshall,"Alaska Village Elec Coop, Inc",60244,AK,AKMS,Wade Hampton,61.878186,-162.085147,DFO,OIL,
McGrath,McGrath Light & Power Co,6555,AK,AKMS,Yukon Koyukuk,62.95699,-155.594997,DFO,OIL,ASCC
Mountain Village,"Alaska Village Elec Coop, Inc",6329,AK,AKMS,Bethel,62.085569,-163.729072,DFO,OIL,ASCC
Naknek,"Naknek Electric Assn, Inc",6301,AK,AKMS,Bristol Bay,58.730417,-157.007222,DFO,OIL,ASCC
New Stuyahok,"Alaska Village Elec Coop, Inc",60245,AK,AKMS,Dillingham,59.448358,-157.325528,DFO,OIL,
Newhalen,"I-N-N Electric Coop, Inc",7183,AK,AKMS,Lake and Peninsula,59.899054,-154.698735,WAT,HYDRO,ASCC
Nikiski Co-Generation,Alaska Electric & Energy Coop,55966,AK,AKGD,Kenai Peninsula,60.676539,-151.377713,NG,GAS,ASCC
Noatak,"Alaska Village Elec Coop, Inc",57051,AK,AKMS,Northwest Arctic,67.570931,-162.965728,DFO,OIL,ASCC
Noorvik,"Alaska Village Elec Coop, Inc",6330,AK,AKMS,Northwest Arctic,66.834519,-161.038717,DFO,OIL,ASCC
North Pole,Golden Valley Elec Assn Inc,6285,AK,AKGD,Fairbanks North Star,64.7356,-147.3481,WO,OIL,ASCC
Northway,Alaska Power and Telephone Co,7169,AK,AKMS,Southeast Fairbanks,62.9617,-141.9372,DFO,OIL,ASCC
NSB Anaktuvuk Pass,North Slope Borough Power & Light,7487,AK,AKMS,North Slope,68.13795,-151.741017,DFO,OIL,ASCC
NSB Atqasuk Utility,North Slope Borough Power & Light,7482,AK,AKMS,North Slope,70.4826,-157.4252,DFO,OIL,ASCC
NSB Kaktovik Utility,North Slope Borough Power & Light,7483,AK,AKMS,North Slope,70.125617,-143.619033,DFO,OIL,ASCC
NSB Nuiqsut Utility,North Slope Borough Power & Light,7484,AK,AKMS,North Slope,70.220565,-150.993492,DFO,OIL,ASCC
NSB Point Hope Utility,North Slope Borough Power & Light,7485,AK,AKMS,North Slope,68.348424,-166.737211,DFO,OIL,ASCC
NSB Point Lay Utility,North Slope Borough Power & Light,7486,AK,AKMS,North Slope,69.740833,-163.005833,DFO,OIL,ASCC
NSB Wainwright Utility,North Slope Borough Power & Light,7488,AK,AKMS,North Slope,70.642877,-160.020461,DFO,OIL,ASCC
Nunapitchuk,"Alaska Village Elec Coop, Inc",6333,AK,AKMS,Bethel,60.89588,-162.459756,DFO,OIL,ASCC
Nymans Plant,Kodiak Electric Assn Inc,7723,AK,AKMS,Kodiak Island,57.731608,-152.507044,DFO,OIL,ASCC
Orca,"Cordova Electric Coop, Inc",789,AK,AKMS,Valdez Cordova,60.555889,-145.752983,DFO,OIL,ASCC
Pelican,Pelican Utility,6702,AK,AKMS,Hoonah-Angoon,57.957197,-136.220095,WAT,HYDRO,ASCC
Petersburg,Petersburg Borough - (AK),91,AK,AKMS,Petersburg,56.81104,-132.957091,WAT,HYDRO,ASCC
Pillar Mountain Wind Project,Kodiak Electric Assn Inc,57187,AK,AKMS,Kodiak Island,57.7869,-152.4406,WND,WIND,ASCC
Pilot Station,"Alaska Village Elec Coop, Inc",57058,AK,AKMS,Wade Hampton,61.936456,-162.880706,DFO,OIL,ASCC
Port Lions,Kodiak Electric Assn Inc,6282,AK,AKMS,Kodiak Island,57.864775,-152.855441,DFO,OIL,ASCC
Power Creek,"Cordova Electric Coop, Inc",7862,AK,AKMS,Valdez Cordova,60.588686,-145.604539,WAT,HYDRO,ASCC
Purple Lake,Metlakatla Power & Light,6302,AK,AKMS,Prince of Wales-Hyder,55.091263,-131.544978,WAT,HYDRO,ASCC
Quinhagak,"Alaska Village Elec Coop, Inc",57057,AK,AKMS,Bethel,59.747436,-161.910647,DFO,OIL,ASCC
S W Bailey,Ketchikan Public Utilities,85,AK,AKMS,Ketchikan Gateway,55.357397,-131.69696,DFO,OIL,ASCC
Salmon Creek 1,Alaska Electric Light&Power Co,65,AK,AKMS,Juneau,58.3269,-134.4631,WAT,HYDRO,ASCC
Savoonga,"Alaska Village Elec Coop, Inc",57052,AK,AKMS,Nome,63.695267,-170.475661,DFO,OIL,ASCC
Scammon Bay,"Alaska Village Elec Coop, Inc",57056,AK,AKMS,Wade Hampton,61.843036,-165.581497,DFO,OIL,ASCC
Selawik,"Alaska Village Elec Coop, Inc",6341,AK,AKMS,Northwest Arctic,66.606778,-160.014808,DFO,OIL,ASCC
Seldovia,Homer Electric Assn Inc,6283,AK,AKGD,Kenai Peninsula,59.439542,-151.713439,DFO,OIL,ASCC
Seward (AK),City of Seward - (AK),92,AK,AKGD,Kenai Peninsula,60.130922,-149.43501,DFO,OIL,ASCC
Shishmaref,"Alaska Village Elec Coop, Inc",6345,AK,AKMS,Nome,66.255072,-166.073589,DFO,OIL,ASCC
Shungnak,"Alaska Village Elec Coop, Inc",57063,AK,AKMS,Northwest Arctic,66.888114,-157.140206,DFO,OIL,ASCC
Silvis,Ketchikan Public Utilities,6581,AK,AKMS,Ketchikan Gateway,55.381402,-131.517758,WAT,HYDRO,ASCC
Skagway,Alaska Power and Telephone Co,66,AK,AKMS,Skagway,59.4545,-135.3131,WAT,HYDRO,ASCC
Snake River,Nome Joint Utility Systems,90,AK,AKMS,Nome,64.505331,-165.429814,DFO,OIL,ASCC
Snettisham,Alaska Electric Light&Power Co,78,AK,AKMS,Juneau,58.1415,-133.737,WAT,HYDRO,ASCC
Soldotna,Homer Electric Assn Inc,57206,AK,AKGD,Kenai Peninsula,60.499444,-150.997222,NG,GAS,ASCC
Solomon Gulch,"Copper Valley Elec Assn, Inc",390,AK,AKMS,Valdez Cordova,61.0828,-146.3033,WAT,HYDRO,ASCC
South Fork,Alaska Power and Telephone Co,56265,AK,AKMS,Prince of Wales-Hyder,55.563333,-132.891111,WAT,HYDRO,ASCC
Southcentral Power Project,Chugach Electric Assn Inc,57036,AK,AKGD,Anchorage,61.167417,-149.905304,NG,GAS,ASCC
St Marys IC,"Alaska Village Elec Coop, Inc",6338,AK,AKMS,Bethel,62.051525,-163.172567,DFO,OIL,ASCC
St. Michael,"Alaska Village Elec Coop, Inc",57061,AK,AKMS,Nome,63.4775,-162.0383,DFO,OIL,ASCC
Stebbins,"Alaska Village Elec Coop, Inc",57055,AK,AKMS,Nome,63.521047,-162.286322,DFO,OIL,ASCC
Swampy Acres,Kodiak Electric Assn Inc,60250,AK,AKMS,Kodiak Island,57.77556,-152.48028,DFO,OIL,
Swan Lake,Ketchikan Public Utilities,70,AK,AKMS,Ketchikan Gateway,55.615208,-131.356111,WAT,HYDRO,ASCC
Sweetheart Lake Hydroelectric Facility,Alaska Electric Light&Power Co,60588,AK,AKMS,Juneau,57.9449,-133.6867,WAT,HYDRO,
Terror Lake,Kodiak Electric Assn Inc,71,AK,AKMS,Kodiak Island,57.6861,-152.895,WAT,HYDRO,ASCC
Tesoro Kenai Cogeneration Plant,Homer Electric Assn Inc,52184,AK,AKGD,Kenai Peninsula,60.677,-151.3815,NG,GAS,ASCC
Thorne Bay Plant,Alaska Power and Telephone Co,7414,AK,AKMS,Prince of Wales-Hyder,55.68586,-132.52892,DFO,OIL,ASCC
TNSG North Plant,TDX North Slope Generating Co,58278,AK,AKMS,North Slope,70.235278,-148.383611,NG,GAS,ASCC
TNSG South Plant,TDX North Slope Generating Co,58117,AK,AKMS,North Slope,70.2,-148.466667,NG,GAS,ASCC
Togiak,"Alaska Village Elec Coop, Inc",6348,AK,AKMS,Dillingham,59.059744,-160.380278,DFO,OIL,ASCC
Tok,Alaska Power and Telephone Co,406,AK,AKMS,Southeast Fairbanks,63.33552,-142.99997,DFO,OIL,ASCC
Toksook Bay,"Alaska Village Elec Coop, Inc",57067,AK,AKMS,Bethel,60.530142,-165.108575,DFO,OIL,ASCC
Tyee Lake Hydroelectric Facility,,61166,AK,AKMS,Wrangell,56.216403,-131.504344,WAT,HYDRO,
Unalakleet,Unalakleet Valley Elec Coop,6299,AK,AKMS,Nome,63.876789,-160.790414,DFO,OIL,ASCC
Unalaska Power Module,City of Unalaska - (AK),7503,AK,AKMS,Aleutians West,53.863993,-166.512591,DFO,OIL,ASCC
Unisea G 2,City of Unalaska - (AK),54422,AK,AKMS,Aleutians West,53.8796,-166.5532,DFO,OIL,ASCC
University of Alaska Fairbanks,Golden Valley Elec Assn Inc,50711,AK,AKGD,Fairbanks North Star,64.854171,-147.822075,SUB,COAL,ASCC
Upper Kalskag,"Alaska Village Elec Coop, Inc",57054,AK,AKMS,Bethel,61.526858,-160.348128,DFO,OIL,ASCC
Utility Plants Section,Golden Valley Elec Assn Inc,50308,AK,AKGD,Fairbanks North Star,64.825601,-147.648627,SUB,COAL,ASCC
Valdez,"Copper Valley Elec Assn, Inc",6306,AK,AKMS,Valdez Cordova,61.1303,-146.3647,DFO,OIL,ASCC
Valdez Cogen,"Copper Valley Elec Assn, Inc",7841,AK,AKMS,Valdez Cordova,61.0839,-146.2529,WO,OIL,ASCC
Viking,Alaska Power and Telephone Co,56147,AK,AKMS,Prince of Wales-Hyder,55.540708,-133.102344,DFO,OIL,ASCC
Westward Seafoods,City of Unalaska - (AK),54305,AK,AKMS,Aleutians West,53.858508,-166.55288,DFO,OIL,ASCC
Whitman,Ketchikan Public Utilities,58977,AK,AKMS,Ketchikan Gateway,55.328056,-131.530833,WAT,HYDRO,ASCC
Wrangell,City of Wrangell - (AK),95,AK,AKMS,Wrangell,56.460976,-132.379439,DFO,OIL,ASCC
Yakutat,CBY DBA Yakutat Power,6637,AK,AKMS,Yakutat,59.544553,-139.724306,DFO,OIL,ASCC
ABC Coke,Alabama Power Co,56076,AL,SRSO,Jefferson,33.582793,-86.779866,OG,OFSL,SERC
Alabama Pine Pulp,Alabama Power Co,54429,AL,SRSO,Monroe,31.5825,-87.4889,BLQ,BIOMASS,SERC
Alabama River Pulp,Alabama Power Co,10216,AL,SRSO,Monroe,31.5825,-87.4889,BLQ,BIOMASS,SERC
Albertville,Tennessee Valley Authority,7924,AL,SRTV,Marshall,34.363389,-86.223889,DFO,OIL,SERC
AMEA Sylacauga Plant,Alabama Power Co,56018,AL,SRSO,Talladega,33.1661,-86.2825,NG,GAS,SERC
ANAD Solar Array,Alabama Power Co,60680,AL,SRSO,Calhoun,33.626728,-85.969481,SUN,SOLAR,SERC
APC1,,7708,AL,SRSO,,,,NG,GAS,SERC
APC2,,7876,AL,SRSO,,,,NG,GAS,SERC
APC3,,7877,AL,SRSO,,,,NG,GAS,SERC
Bankhead Dam,Alabama Power Co,2,AL,SRSO,Tuscaloosa,33.458665,-87.356823,WAT,HYDRO,SERC
Barry,Alabama Power Co,3,AL,SRSO,Mobile,31.0069,-88.0103,BIT,COAL,SERC
Bartletts Ferry,Georgia Power Co,702,AL,SRSO,Lee,32.661976,-85.091552,WAT,HYDRO,SERC
Bellefonte,Tennessee Valley Authority,6150,AL,SRTV,Jackson,34.7092,-85.9278,DFO,OIL,SERC
Boise Cascade Pulp & Paper Mill,Alabama Power Co,55044,AL,SRSO,Clarke,31.4894,-87.8989,BLQ,BIOMASS,SERC
Browns Ferry,Tennessee Valley Authority,46,AL,SRTV,Limestone,34.7042,-87.1189,NUC,NUCLEAR,SERC
Calhoun Energy Center,Alabama Power Co,55409,AL,SRSO,Calhoun,33.5883,-85.9731,NG,GAS,SERC
Charles R Lowman,PowerSouth Energy Cooperative,56,AL,SRSO,Washington,31.488019,-87.910747,BIT,COAL,SERC
Colbert,Tennessee Valley Authority,47,AL,SRTV,Colbert,34.7439,-87.8486,BIT,COAL,SERC
Crestwood Dothan,City of Dothan - (AL),54985,AL,SRSO,Houston,31.262356,-85.402737,DFO,OIL,SERC
Decatur Energy Center,Tennessee Valley Authority,55292,AL,SRTV,Morgan,34.6292,-87.0214,NG,GAS,SERC
Decatur-Morgan Co LFG Recovery Project,Joe Wheeler Elec Member Corp,58061,AL,SRTV,Morgan,34.623611,-87.101111,LFG,BIOMASS,SERC
District 100 Transco Gas Pipe Line,Alabama Power Co,54743,AL,SRSO,Chilton,32.668889,-86.72,WH,OTHF,SERC
E B Harris Generating Plant,Alabama Power Co,7897,AL,SRSO,Autauga,32.381352,-86.574366,NG,GAS,SERC
E C Gaston,Alabama Power Co,26,AL,SRSO,Shelby,33.244211,-86.458056,BIT,COAL,SERC
ExxonMobil Mobile Bay Onshore,Alabama Power Co,54550,AL,SRSO,Mobile,30.43203,-88.18241,NG,GAS,SERC
Fort Rucker Solar Array,Alabama Power Co,60679,AL,SRSO,Dale,31.331148,-85.73019,SUN,SOLAR,SERC
Gadsden,Alabama Power Co,7,AL,SRSO,Etowah,34.0128,-85.9708,NG,GAS,SERC
Gantt,PowerSouth Energy Cooperative,53,AL,SRSO,Covington,31.4033,-86.479469,WAT,HYDRO,SERC
Georgia-Pacific Brewton Mill,Alabama Power Co,54789,AL,SRSO,Escambia,31.077,-87.1116,BLQ,BIOMASS,SERC
Georgia-Pacific Consr Prods LP-Naheola,Alabama Power Co,10699,AL,SRSO,Choctaw,32.2268,-88.0252,BLQ,BIOMASS,SERC
Goat Rock,Georgia Power Co,707,AL,SRSO,Lee,32.60965,-85.0805,WAT,HYDRO,SERC
Gorgas,Alabama Power Co,8,AL,SRSO,Walker,33.644344,-87.196486,BIT,COAL,SERC
Greene County,Alabama Power Co,10,AL,SRSO,Greene,32.6017,-87.7811,NG,GAS,SERC
Guntersville,Tennessee Valley Authority,48,AL,SRTV,Marshall,34.421272,-86.393931,WAT,HYDRO,SERC
H Neely Henry Dam,Alabama Power Co,11,AL,SRSO,Calhoun,33.7845,-86.0524,WAT,HYDRO,SERC
Harris Dam,Alabama Power Co,6188,AL,SRSO,Randolph,33.258281,-85.616047,WAT,HYDRO,SERC
Hillabee Energy Center,Alabama Power Co,55411,AL,SRSO,Tallapoosa,33.000669,-85.903278,NG,GAS,SERC
Hog Bayou Energy Center,Alabama Power Co,55241,AL,SRSO,Mobile,30.7478,-88.0575,NG,GAS,SERC
Holt Dam,Alabama Power Co,12,AL,SRSO,Tuscaloosa,33.2553,-87.4495,WAT,HYDRO,SERC
International Paper-Prattville Mill,Alabama Power Co,52140,AL,SRSO,Autauga,32.4187,-86.4718,BLQ,BIOMASS,SERC
International Paper-Riverdale Mill,Alabama Power Co,54096,AL,SRSO,Dallas,32.426016,-86.870912,NG,GAS,SERC
James H Miller Jr,Alabama Power Co,6002,AL,SRSO,Jefferson,33.6319,-87.0597,SUB,COAL,SERC
Jones Bluff,Alabama Power Co,6131,AL,SRSO,Autauga,32.324242,-86.784319,WAT,HYDRO,SERC
Jordan Dam,Alabama Power Co,13,AL,SRSO,Elmore,32.6189,-86.2548,WAT,HYDRO,SERC
Joseph M Farley,Alabama Power Co,6001,AL,SRSO,Houston,31.2231,-85.1116,NUC,NUCLEAR,SERC
LaFayette Solar Farm,Alabama Power Co,60583,AL,SRSO,Chambers,32.876313,-85.38821,SUN,SOLAR,SERC
Langdale,Georgia Power Co,711,AL,SRSO,Chambers,32.813836,-85.167786,WAT,HYDRO,SERC
Lay Dam,Alabama Power Co,15,AL,SRSO,Chilton,32.9633,-86.5187,WAT,HYDRO,SERC
Lewis Smith Dam,Alabama Power Co,18,AL,SRSO,Walker,33.9406,-87.1077,WAT,HYDRO,SERC
Logan Martin Dam,Alabama Power Co,14,AL,SRSO,Talladega,33.425878,-86.337547,WAT,HYDRO,SERC
Martin Dam,Alabama Power Co,16,AL,SRSO,Elmore,32.680394,-85.911442,WAT,HYDRO,SERC
McIntosh (7063),PowerSouth Energy Cooperative,7063,AL,SRSO,Washington,31.2546,-88.0299,NG,GAS,SERC
McWilliams,PowerSouth Energy Cooperative,533,AL,SRSO,Covington,31.400255,-86.476449,NG,GAS,SERC
"MeadWestvaco Coated Board, LLC",Alabama Power Co,54802,AL,SRSO,Russell,32.1761,-85.0272,NG,GAS,SERC
Millers Ferry,Alabama Power Co,38,AL,SRSO,Wilcox,32.100881,-87.399767,WAT,HYDRO,SERC
Mitchell Dam,Alabama Power Co,17,AL,SRSO,Coosa,32.806025,-86.444892,WAT,HYDRO,SERC
Mobile Energy Services LLC,Alabama Power Co,50407,AL,SRSO,Mobile,30.736487,-88.051643,WDS,BIOMASS,SERC
Morgan Energy Center,Tennessee Valley Authority,55293,AL,SRTV,Morgan,34.6397,-87.0639,NG,GAS,SERC
Plant H. Allen Franklin,Georgia Power Co,7710,AL,SRSO,Lee,32.6078,-85.0975,NG,GAS,SERC
Point A,PowerSouth Energy Cooperative,55,AL,SRSO,Covington,31.361146,-86.518307,WAT,HYDRO,SERC
"River Bend Solar, LLC",Tennessee Valley Authority,60058,AL,SRTV,Lauderdale,34.831511,-87.842204,SUN,SOLAR,SERC
Rock-Tenn Mill,Alabama Power Co,54763,AL,SRSO,Marengo,32.4541,-87.9759,BLQ,BIOMASS,SERC
SABIC Innovative Plastics - Burkville,Alabama Power Co,7698,AL,SRSO,Lowndes,32.310226,-86.52542,NG,GAS,SERC
Sand Valley Power Station,Sand Mountain Electric Coop,59710,AL,SRTV,Dekalb,34.343875,-85.866103,LFG,BIOMASS,SERC
Sloss Industries Corp,Alabama Power Co,50359,AL,SRSO,Jefferson,33.568164,-86.79873,OG,OFSL,SERC
Tenaska Central Alabama Gen Station,Alabama Power Co,55440,AL,SRSO,Autauga,32.6497,-86.74,NG,GAS,SERC
Tenaska Lindsay Hill Generating Station,Alabama Power Co,55271,AL,SRSO,Autauga,32.6514,-86.7386,NG,GAS,SERC
Theodore Cogeneration,Alabama Power Co,7721,AL,SRSO,Mobile,30.525445,-88.128477,NG,GAS,SERC
Thurlow Dam,Alabama Power Co,19,AL,SRSO,Elmore,32.535436,-85.887614,WAT,HYDRO,SERC
U S Alliance Coosa Pines,Alabama Power Co,54216,AL,SRSO,Talladega,33.328107,-86.356825,BLQ,BIOMASS,SERC
US Steel (Fairfield Works),Alabama Power Co,50730,AL,SRSO,Jefferson,33.4885,-86.9212,PRG,OTHF,SERC
Walter Bouldin Dam,Alabama Power Co,4,AL,SRSO,Elmore,32.583889,-86.283056,WAT,HYDRO,SERC
Walton Discover Power Facility,Georgia Transmission Corp,55138,AL,SRSO,LEE,32.54098,-85.038879,NG,GAS,SERC
Washington County Cogen (Olin),Alabama Power Co,7697,AL,SRSO,Washington,31.2504,-88.0156,NG,GAS,SERC
Weiss Dam,Alabama Power Co,20,AL,SRSO,Cherokee,34.172142,-85.753806,WAT,HYDRO,SERC
Westervelt Moundville Cogen,Alabama Power Co,57467,AL,SRSO,Hale,32.960714,-87.655419,WDS,BIOMASS,SERC
Weyerhaeuser Pine Hill Operations,Alabama Power Co,54752,AL,SRSO,Wilcox,31.9698,-87.4806,BLQ,BIOMASS,SERC
Wheeler Dam,Tennessee Valley Authority,49,AL,SRTV,Lawrence,34.8069,-87.3819,WAT,HYDRO,SERC
Widows Creek,Tennessee Valley Authority,50,AL,SRTV,Jackson,34.883022,-85.755253,BIT,COAL,SERC
Wilson Dam,Tennessee Valley Authority,6440,AL,SRTV,Lauderdale,34.79782,-87.62537,WAT,HYDRO,SERC
Yates Dam,Alabama Power Co,21,AL,SRSO,Elmore,32.5743,-85.8901,WAT,HYDRO,SERC
Yellowhammer Gas Plant,Alabama Power Co,54730,AL,SRSO,MOBILE,30.403538,-88.12833,NG,GAS,SERC
Archer Daniels Midland Little Rock,Entergy Arkansas Inc,54311,AR,SRMV,Pulaski,34.7,-92.199722,NG,GAS,SERC
Arkansas Nuclear One,Entergy Arkansas Inc,8055,AR,SRMV,Pope,35.311,-93.2351,NUC,NUCLEAR,SERC
Ashdown,Southwestern Electric Power Co,54104,AR,SPSO,Little River,33.6417,-94.1083,BLQ,BIOMASS,SPP
Beaver Dam,Southwestern Power Administration,182,AR,SPSO,Carroll,36.421507,-93.847373,WAT,HYDRO,SPP
Blakely Mountain,Entergy Arkansas Inc,197,AR,SRMV,Garland,34.570984,-93.194425,WAT,HYDRO,SERC
Bull Shoals,Southwestern Power Administration,198,AR,SPSO,Marion,36.3635,-92.5763,WAT,HYDRO,SPP
Carl Bailey,Entergy Arkansas Inc,202,AR,SRMV,Woodruff,35.260102,-91.363426,NG,GAS,SERC
Carpenter,Entergy Arkansas Inc,166,AR,SRMV,Garland,34.4425,-93.0262,WAT,HYDRO,SERC
Cecil Lynch,Entergy Arkansas Inc,167,AR,SRMV,Pulaski,34.7535,-92.1987,,,SERC
City Water & Light - City of Jonesboro,City Water and Light Plant,56505,AR,SPSO,Craighead,35.848561,-90.725377,NG,GAS,SPP
Clearwater Paper APP CB,Entergy Arkansas Inc,50638,AR,SRMV,Desha,33.7061,-91.2371,BLQ,BIOMASS,SERC
Columbia Flooring Melbourne,Entergy Arkansas Inc,56182,AR,SRMV,Izard,36.060514,-91.919802,WDS,BIOMASS,SERC
Dam 2,Entergy Arkansas Inc,7246,AR,SRMV,Desha,33.986501,-91.315788,WAT,HYDRO,SERC
Dardanelle,Southwestern Power Administration,199,AR,SPSO,Pope,35.2503,-93.1686,WAT,HYDRO,SPP
Degray,Entergy Arkansas Inc,187,AR,SRMV,Clark,34.211913,-93.110963,WAT,HYDRO,SERC
Dell Power Plant,"Associated Electric Coop, Inc",55340,AR,SRMW,Mississippi,35.8619,-90.0253,NG,GAS,SERC
Elkins Generating Center,Ozarks Electric Coop Corp - (AR),56489,AR,SPSO,Washington,35.9714,-94.0014,NG,GAS,SPP
Ellis Hydro,Southwestern Electric Power Co,7040,AR,SPSO,Crawford,35.351361,-94.294349,WAT,HYDRO,SPP
Flint Creek Power Plant,Southwestern Electric Power Co,6138,AR,SPSO,Benton,36.2561,-94.5241,SUB,COAL,SPP
Fourche Creek Wastewater,Entergy Arkansas Inc,10050,AR,SRMV,Pulaski,34.6968,-92.165,OBG,BIOMASS,SERC
Fulton,Southwestern Electric Power Co,7825,AR,SPSO,Hempstead,33.6094,-93.7924,NG,GAS,SPP
Genova Arkansas I LLC,,55869,AR,SPSO,Washington,36.186111,-94.284166,NG,GAS,SPP
Georgia-Pacific Crossett LLC,Entergy Arkansas Inc,10606,AR,SRMV,Ashley,33.1421,-91.975,BLQ,BIOMASS,SERC
Greers Ferry Lake,Southwestern Power Administration,188,AR,SPSO,Cleburne,35.5207,-91.9953,WAT,HYDRO,SPP
Hamilton Moses,Entergy Arkansas Inc,168,AR,SRMV,St Francis,34.9806,-90.8722,NG,GAS,SERC
Harry D. Mattison Power Plant,Southwestern Electric Power Co,56328,AR,SPSO,Washington,36.1855,-94.2841,NG,GAS,SPP
Harvey Couch,Entergy Arkansas Inc,169,AR,SRMV,Lafayette,33.3592,-93.4649,NG,GAS,SERC
Hot Spring  Energy Facility,Entergy Arkansas Inc,55418,AR,SRMV,Hot Spring,34.29759,-92.868344,NG,GAS,SERC
Independence,Entergy Arkansas Inc,6641,AR,SRMV,Independence,35.678442,-91.408761,SUB,COAL,SERC
John W. Turk Jr. Power Plant,Southwestern Electric Power Co,56564,AR,SPSO,Hempstead,33.649722,-93.811944,SUB,COAL,SPP
Lake Catherine,Entergy Arkansas Inc,170,AR,SRMV,Hot Spring,34.4341,-92.9049,NG,GAS,SERC
Lee Creek Water Treatment Facility,Arkansas Valley Elec Coop Corp,54283,AR,SRMV,Crawford,35.484488,-94.392858,WAT,HYDRO,SPP
Mabelvale,Entergy Arkansas Inc,171,AR,SRMV,Pulaski,34.635997,-92.409602,NG,GAS,SERC
Magnet Cove Generating Station,Entergy Arkansas Inc,55714,AR,SRMV,Hot Spring,34.4297,-92.8317,NG,GAS,SERC
McClellan,Entergy Arkansas Inc,203,AR,SRMV,Ouachita,33.5648,-92.7917,NG,GAS,SERC
Municipal Light,Southwestern Power Administration,193,AR,SPSO,Clay,36.3858,-90.1867,DFO,OIL,SPP
Murray,Entergy Arkansas Inc,7166,AR,SRMV,Pulaski,34.7956,-92.3569,WAT,HYDRO,SERC
Narrows (AR),Southwestern Electric Power Co,195,AR,SPSO,Pike,34.148427,-93.715168,WAT,HYDRO,SERC
Norfork,Southwestern Power Administration,196,AR,SPSO,Baxter,36.2491,-92.2401,WAT,HYDRO,SPP
Osceola (AR),Entergy Arkansas Inc,172,AR,SRMV,Mississippi,35.6893,-89.994,DFO,OIL,SPP
Oswald Generating Station,Entergy Arkansas Inc,55221,AR,SRMV,Pulaski,34.5923,-92.2166,NG,GAS,SERC
Ozark,Southwestern Power Administration,6142,AR,SPSO,Franklin,35.4693,-93.8175,WAT,HYDRO,SPP
Ozarks Natural Energy,Ozarks Electric Coop Corp - (AR),60924,AR,SPSO,Washington,36.164296,-94.082269,SUN,SOLAR,SPP
Paragould,Paragould Light & Water Comm,192,AR,SPSO,Greene,36.060556,-90.521389,DFO,OIL,SPP
Paragould Reciprocating,Paragould Light & Water Comm,8015,AR,SPSO,Greene,36.0242,-90.5094,NG,GAS,SPP
Paragould Turbine,Paragould Light & Water Comm,7283,AR,SPSO,Greene,36.024272,-90.509229,NG,GAS,SPP
Pine Bluff Energy Center,Entergy Arkansas Inc,55075,AR,SRMV,Jefferson,34.2181,-91.9025,NG,GAS,SERC
Pine Bluff Mill,Entergy Arkansas Inc,10627,AR,SRMV,Jefferson,34.221213,-91.907365,BLQ,BIOMASS,SERC
Plum Point Energy Station,Entergy Arkansas Inc,56456,AR,SRMV,Mississippi,35.6644,-89.9489,SUB,COAL,SERC
Remmel,Entergy Arkansas Inc,174,AR,SRMV,Hot Spring,34.4272,-92.8941,WAT,HYDRO,SERC
Riceland Foods Cogeneration Plant,Entergy Arkansas Inc,56079,AR,SRMV,Arkansas,34.5136,-91.5331,OBS,BIOMASS,SERC
Robert E Ritchie,Entergy Arkansas Inc,173,AR,SRMV,Phillips,34.4629,-90.5987,NG,GAS,SERC
SR Camden,Ouachita Electric Coop Corp,59947,AR,SRMV,Calhoun,33.631538,-92.703611,SUN,SOLAR,SERC
Stuttgart Solar,Entergy Arkansas Inc,61262,AR,SRMV,Arkansas,34.439722,-91.44,SUN,SOLAR,SERC
Thomas Fitzhugh,Southwestern Electric Power Co,201,AR,SPSO,Franklin,35.462382,-93.804926,NG,GAS,SPP
Two Pine Landfill Gas Recovery,Entergy Arkansas Inc,56523,AR,SRMV,Pulaski,34.8332,-92.157103,LFG,BIOMASS,SERC
UA Central Utility Plant,Southwestern Electric Power Co,60536,AR,SPSO,Washington,36.066336,-94.172254,NG,GAS,SPP
Union Power Station,Entergy Arkansas Inc,55380,AR,SRMV,Union,33.296146,-92.589364,NG,GAS,SERC
Warren Lumber Mill,Entergy Arkansas Inc,50640,AR,SRMV,Bradley,33.6206,-92.078889,WDS,BIOMASS,SERC
Waste Management Eco Vista LFGTE,Arkansas Electric Coop Corp,57025,AR,SPSO,Washington,36.140849,-94.259713,LFG,BIOMASS,SERC
Whillock,Entergy Arkansas Inc,7135,AR,SRMV,Conway,35.127591,-92.790273,WAT,HYDRO,SERC
White Bluff,Entergy Arkansas Inc,6009,AR,SRMV,Jefferson,34.4228,-92.1406,SUB,COAL,SERC
White River Lock and Dam 1,Southwestern Power Administration,57160,AR,SRMV,Independence,35.757401,-91.636887,WAT,HYDRO,SERC
White River Lock and Dam 2,Southwestern Power Administration,57161,AR,SRMV,Independence,35.744036,-91.765418,WAT,HYDRO,SERC
White River Lock and Dam 3,Southwestern Power Administration,57162,AR,SRMV,Stone,35.84361,-91.850521,WAT,HYDRO,SERC
Actus Lend Lease DMAFB,Tucson Electric Power Co,58632,AZ,AZNM,Pima,32.1825,-110.863333,SUN,SOLAR,WECC
Agua Caliente Solar Project,San Diego Gas & Electric Co,57373,AZ,CAMX,Yuma,32.9774,-113.4945,SUN,SOLAR,WECC
Agua Fria Generating Station,Salt River Project,141,AZ,AZNM,Maricopa,33.5561,-112.2153,NG,GAS,WECC
Amonix UASTP Solar Power Station,Tucson Electric Power Co,57930,AZ,AZNM,Pima,32.108147,-110.824662,SUN,SOLAR,WECC
Amphitheater High School Solar,Tucson Electric Power Co,60684,AZ,AZNM,Pima,32.269,-110.975,SUN,SOLAR,WECC
Apache Solar 1,Arizona Electric Pwr Coop Inc,60964,AZ,AZNM,Cochise,32.068141,-109.890379,SUN,SOLAR,WECC
Apache Station,Arizona Electric Pwr Coop Inc,160,AZ,AZNM,Cochise,32.0603,-109.8931,SUB,COAL,WECC
APS Saguaro Power Plant,Arizona Public Service Co,118,AZ,AZNM,Pinal,32.5517,-111.3,NG,GAS,WECC
APS West Phoenix Power Plant,Arizona Public Service Co,117,AZ,AZNM,Maricopa,33.4417,-112.1583,NG,GAS,WECC
Arizona State University CHP,Arizona Public Service Co,58199,AZ,AZNM,Maricopa,33.417222,-111.928333,NG,GAS,WECC
Arizona Western College PV,Arizona Public Service Co,57765,AZ,AZNM,Yuma,32.687778,-114.49611,SUN,SOLAR,WECC
Arlington Valley Energy Facility,Salt River Project,55282,AZ,AZNM,Maricopa,33.3417,-112.8897,NG,GAS,WECC
Arlington Valley Solar Energy I,Salt River Project,57679,AZ,AZNM,Maricopa,33.321667,-112.880555,SUN,SOLAR,WECC
Arlington Valley Solar Energy II,Salt River Project,57680,AZ,AZNM,Maricopa,33.305,-112.833888,SUN,SOLAR,WECC
Avalon Solar,Tucson Electric Power Co,59168,AZ,AZNM,Pima,32.001389,-110.960556,SUN,SOLAR,WECC
Avalon Solar II,Tucson Electric Power Co,60062,AZ,AZNM,Pima,32.000854,-110.958427,SUN,SOLAR,WECC
Avra Valley Solar,Tucson Electric Power Co,57657,AZ,AZNM,Pima,32.371667,-111.282777,SUN,SOLAR,WECC
Badger 1,Arizona Public Service Co,58262,AZ,AZNM,Maricopa,33.498003,-112.813458,SUN,SOLAR,WECC
Black Mountain Generating Station,"UNS Electric, Inc",56482,AZ,AZNM,Mohave,35.0361,-114.1594,NG,GAS,WECC
Black Mountain Solar LLC,"UNS Electric, Inc",58042,AZ,AZNM,Mohave,35.0227,-114.1627,SUN,SOLAR,WECC
Bonnybrooke PV,Salt River Project,60413,AZ,AZNM,Pinal,33.053,-111.34,SUN,SOLAR,WECC
"Buckeye Generation Center, LLC",Arizona Public Service Co,59471,AZ,AZNM,Maricopa,33.230833,-112.626389,NG,GAS,WECC
Buckeye Union HS District 201,Arizona Public Service Co,58037,AZ,AZNM,Maricopa,33.419167,-112.576111,SUN,SOLAR,WECC
Canyon Del Oro High School Solar,Tucson Electric Power Co,60685,AZ,AZNM,Pima,32.374,-110.974,SUN,SOLAR,WECC
Childs,,112,AZ,AZNM,Yavapai,34.351111,-111.700556,WAT,HYDRO,WECC
Chino Solar Valley,Arizona Public Service Co,57560,AZ,AZNM,Yavapai,34.71843,-112.42899,SUN,SOLAR,WECC
Cholla,Arizona Public Service Co,113,AZ,AZNM,Navajo,34.9394,-110.3033,SUB,COAL,WECC
Cogeneration 1,Tucson Electric Power Co,56229,AZ,AZNM,Pima,32.229922,-110.952797,NG,GAS,WECC
Cogeneration 2,Tucson Electric Power Co,59233,AZ,AZNM,Pima,32.240833,-110.948333,NG,GAS,WECC
Cogenra - TEP,Tucson Electric Power Co,58832,AZ,AZNM,Pima,32.101944,-110.813333,SUN,SOLAR,WECC
"Concord Blue Eagar, LLC","Navopache Electric Coop, Inc",60374,AZ,AZNM,Apache,34.11494,-109.37503,OBG,BIOMASS,WECC
Coolidge Generating Station,Salt River Project,56948,AZ,AZNM,Pinal,32.917399,-111.503327,NG,GAS,WECC
Copper Crossing Energy Center,Salt River Project,58413,AZ,AZNM,Pinal,33.15512,-111.483636,NG,GAS,WECC
Copper Crossing Solar LLC,Salt River Project,57318,AZ,AZNM,Gila,33.160601,-111.484011,SUN,SOLAR,WECC
Coronado Generating Station,Salt River Project,6177,AZ,AZNM,Apache,34.5789,-109.2708,RC,COAL,WECC
Cotton Center Solar,Arizona Public Service Co,57561,AZ,AZNM,Maricopa,33.034722,-112.661667,SUN,SOLAR,WECC
Crosscut,Salt River Project,143,AZ,AZNM,Maricopa,33.439375,-111.946052,,,WECC
Davis Dam,WAPA-- Western Area Power Administration,152,AZ,AZNM,Mohave,35.197044,-114.570669,WAT,HYDRO,WECC
Davis Monthan AFB (AZ) West Airfield,Tucson Electric Power Co,59779,AZ,AZNM,Pima,32.17356,-110.899734,SUN,SOLAR,WECC
De Moss Petrie Generating Station,Tucson Electric Power Co,124,AZ,AZNM,Pima,32.252273,-110.992148,NG,GAS,WECC
Desert Basin Generating Station,Salt River Project,55129,AZ,AZNM,Pinal,32.9042,-111.7889,NG,GAS,WECC
Dolan Springs,Western Area Power Administration - Rock,57920,AZ,AZNM,Mohave,35.61,-114.26,WND,WIND,WECC
Douglas,Arizona Public Service Co,114,AZ,AZNM,Cochise,31.364122,-109.5538,DFO,OIL,WECC
Dry Lake Solar,Arizona Public Service Co,57922,AZ,AZNM,Navajo,34.513333,-110.078333,SUN,SOLAR,WECC
Dry Lake Wind II LLC,Arizona Public Service Co,57379,AZ,AZNM,Navajo,34.6062,-110.1734,WND,WIND,WECC
Dry Lake Wind LLC,Salt River Project,57098,AZ,AZNM,Navajo,34.6596,-110.2842,WND,WIND,WECC
FirstEnergy,,55711,AZ,AZNM,La Paz,33.935833,-113.555,NG,GAS,RFC
Foothills Solar Plant,Arizona Public Service Co,57997,AZ,AZNM,Yuma,32.64856,-114.428741,SUN,SOLAR,WECC
Fort Huachuca Solar PV Project,Tucson Electric Power Co,58972,AZ,AZNM,Cochise,31.555278,-110.35,SUN,SOLAR,WECC
"Gato Montes Solar, LLC",Tucson Electric Power Co,58842,AZ,AZNM,Pima,32.102778,-110.819722,SUN,SOLAR,WECC
Gila Bend,Arizona Public Service Co,59020,AZ,AZNM,Maricopa,32.940833,-112.881389,SUN,SOLAR,WECC
Gila Bend Power Generation Station,Arizona Public Service Co,55507,AZ,AZNM,Maricopa,32.985977,-112.811009,NG,GAS,WECC
Gila River Power Station,Arizona Public Service Co,55306,AZ,AZNM,Maricopa,32.975,-112.6944,NG,GAS,WECC
"Gilbert Solar Facility I, LLC",Arizona Public Service Co,58543,AZ,AZNM,Maricopa,33.355862,-111.802355,SUN,SOLAR,WECC
Gillespie 1,Arizona Public Service Co,58501,AZ,AZNM,Maricopa,33.026389,-112.665833,SUN,SOLAR,WECC
Glen Canyon Dam,WAPA-- Western Area Power Administration,153,AZ,RMPA,Coconino,36.936614,-111.483872,WAT,HYDRO,WECC
Glendale Energy Power Plant,Arizona Public Service Co,57829,AZ,AZNM,Maricopa,33.540324,-112.306361,LFG,BIOMASS,WECC
Gray Hawk Solar,Tucson Electric Power Co,61272,AZ,AZNM,Mohave,35.3635,-113.8978,SUN,SOLAR,WECC
Griffith Energy Project,WAPA-- Western Area Power Administration,55124,AZ,AZNM,Mohave,35.054029,-114.133272,NG,GAS,WECC
Headgate Rock,Colorado River Indian Irr Proj,7179,AZ,AZNM,La Paz,34.168264,-114.277356,WAT,HYDRO,WECC
Hoover Dam (AZ),WAPA-- Western Area Power Administration,8902,AZ,AZNM,Mohave,36.01551,-114.738006,WAT,HYDRO,WECC
Horse Mesa,Salt River Project,145,AZ,AZNM,Maricopa,33.5907,-111.344,WAT,HYDRO,WECC
Hyder II,Arizona Public Service Co,58383,AZ,AZNM,Yuma,33.027,-113.3489,SUN,SOLAR,WECC
Hyder Solar,Arizona Public Service Co,57563,AZ,AZNM,Yuma,33.02566,-113.34397,SUN,SOLAR,WECC
Intel - Ocotillo Campus Solar,Salt River Project,60822,AZ,AZNM,Maricopa,33.243261,-111.892354,SUN,SOLAR,WECC
IRC Generator Facility,"Garkane Energy Coop, Inc",56899,AZ,NWPP,Coconino,36.9708,-112.5264,DFO,OIL,WECC
Iron Horse Battery Storage,Tucson Electric Power Co,60996,AZ,AZNM,Pima,32.098492,-110.819119,,,WECC
Irving,,115,AZ,AZNM,Yavapai,34.402222,-111.617222,WAT,HYDRO,WECC
Irvington Generating Station,Tucson Electric Power Co,126,AZ,AZNM,Pima,32.16,-110.9047,NG,GAS,WECC
Jacobson 5 MW Solar,"UNS Electric, Inc",60603,AZ,AZNM,Mohave,35.304528,-114.014747,SUN,SOLAR,WECC
Jewish Community Center PV,Arizona Public Service Co,58292,AZ,AZNM,Maricopa,33.603056,-111.924722,SUN,SOLAR,WECC
Kayenta Solar Project,Navajo Tribal Utility Authority,61268,AZ,NWPP,Navajo,36.771944,-110.263889,SUN,SOLAR,WECC
Kingman 1,"UNS Electric, Inc",57775,AZ,AZNM,Mohave,35.145833,-114.0675,WND,WIND,WECC
Kyrene Generating Station,Salt River Project,147,AZ,AZNM,Maricopa,33.3556,-111.9353,NG,GAS,WECC
La Paz Solar Tower,WAPA-- Western Area Power Administration,58652,AZ,AZNM,La Paz,33.917222,-114.2675,SUN,SOLAR,WECC
La Senita,"UNS Electric, Inc",57556,AZ,AZNM,Mohave,35.241675,-114.004591,SUN,SOLAR,WECC
Lake Pleasant WTP,Arizona Public Service Co,58539,AZ,AZNM,Maricopa,33.820556,-112.24,SUN,SOLAR,WECC
Luke Solar,Arizona Public Service Co,57324,AZ,AZNM,Maricopa,33.526111,-112.37944,SUN,SOLAR,WECC
Macys Goodyear,Arizona Public Service Co,57673,AZ,AZNM,Maricopa,33.409063,-112.414596,SUN,SOLAR,WECC
Maricopa County Community Colleges- Estr,Arizona Public Service Co,60230,AZ,AZNM,Maricopa,33.409803,-112.340297,SUN,SOLAR,WECC
Mesa Solar Array,Salt River Project,58466,AZ,AZNM,Maricopa,33.346944,-111.603056,SUN,SOLAR,WECC
Mesquite Generating Station,Salt River Project,55481,AZ,AZNM,Maricopa,33.345,-112.864167,NG,GAS,WECC
Mesquite Solar 1,Salt River Project,57707,AZ,AZNM,Maricopa,33.341833,-112.904028,SUN,SOLAR,WECC
"Mesquite Solar 2, LLC",San Diego Gas & Electric Co,60307,AZ,CAMX,Maricopa,33.332777,-112.911388,SUN,SOLAR,WECC
"Mesquite Solar 3, LLC",San Diego Gas & Electric Co,60308,AZ,CAMX,Maricopa,33.347583,-112.936805,SUN,SOLAR,WECC
Mohave Electric at Fort Mohave,"Mohave Electric Cooperative, I",59819,AZ,AZNM,Mohave,34.9843,-114.5565,SUN,SOLAR,WECC
Mormon Flat,Salt River Project,148,AZ,AZNM,Maricopa,33.5536,-111.4431,WAT,HYDRO,WECC
Navajo Generating Station,Salt River Project,4941,AZ,AZNM,Coconino,36.9047,-111.3886,BIT,COAL,WECC
"New Harquahala Generating Company, LLC",Salt River Project,55372,AZ,AZNM,Maricopa,33.47596,-113.113434,NG,GAS,WECC
North Loop,Tucson Electric Power Co,6088,AZ,AZNM,Pima,32.401,-111.1262,NG,GAS,WECC
Northwest Regional,Arizona Public Service Co,57403,AZ,AZNM,Maricopa,33.681944,-112.476666,LFG,BIOMASS,WECC
Novo BioPower Plant,Arizona Public Service Co,56616,AZ,AZNM,Navajo,34.503158,-110.334953,WDS,BIOMASS,WECC
Ocotillo Power Plant,Arizona Public Service Co,116,AZ,AZNM,Maricopa,33.4225,-111.9122,NG,GAS,WECC
Palo Verde,Salt River Project,6008,AZ,AZNM,Maricopa,33.3881,-112.8617,NUC,NUCLEAR,WECC
Paloma Solar,Arizona Public Service Co,57562,AZ,AZNM,Maricopa,33.021111,-112.661389,SUN,SOLAR,WECC
Paradise Valley H.S. PV,Arizona Public Service Co,58293,AZ,AZNM,Maricopa,33.6416,-111.9997,SUN,SOLAR,WECC
PB2 - Gila River,Arizona Public Service Co,60768,AZ,AZNM,Maricopa,32.975,-112.694444,NG,GAS,WECC
Perrin Ranch Wind LLC,Arizona Public Service Co,58155,AZ,AZNM,Coconino,35.415556,-112.271111,WND,WIND,WECC
Phoenix Airport East Economy Lot,Arizona Public Service Co,58708,AZ,AZNM,Maricopa,33.45,-111.98,SUN,SOLAR,WECC
Phoenix Airport Rental Car Center,Arizona Public Service Co,58709,AZ,AZNM,Maricopa,33.45,-111.98,SUN,SOLAR,WECC
"Picture Rocks Solar, LLC",Tucson Electric Power Co,58486,AZ,AZNM,Pima,32.369722,-111.242778,SUN,SOLAR,WECC
Pima Community College,Tucson Electric Power Co,61104,AZ,AZNM,Pima,32.146142,-110.990639,SUN,SOLAR,WECC
Pima Energy Storage System,Tucson Electric Power Co,61197,AZ,AZNM,Pima,32.251647,-110.991333,MWH,OTHF,WECC
Prairie Fire,Tucson Electric Power Co,58171,AZ,AZNM,Pima,32.116389,-110.82,SUN,SOLAR,WECC
Prescott Airport,Arizona Public Service Co,56228,AZ,AZNM,Yavapai,34.6584,-112.4008,SUN,SOLAR,WECC
Prescott Solar Plant,Arizona Public Service Co,58147,AZ,AZNM,Yavapai,34.649444,-112.4275,SUN,SOLAR,WECC
Queen Creek Solar Farm,Salt River Project,57883,AZ,AZNM,Maricopa,33.2675,-111.612222,SUN,SOLAR,WECC
RE Ajo 1 LLC,Arizona Public Service Co,57795,AZ,AZNM,Pima,32.367013,-112.831401,SUN,SOLAR,WECC
RE Bagdad Solar I LLC,Arizona Public Service Co,57790,AZ,AZNM,Yavapai,34.585833,-113.177222,SUN,SOLAR,WECC
Red Horse 2,Tucson Electric Power Co,58833,AZ,AZNM,Cochise,32.286111,-110.088056,SUN,SOLAR,WECC
Red Horse III,Tucson Electric Power Co,60285,AZ,AZNM,Cochise,32.13597,-110.05129,SUN,SOLAR,WECC
Red Rock,Arizona Public Service Co,60467,AZ,AZNM,Maricopa,32.551026,-111.289232,SUN,SOLAR,WECC
Redhawk Generating Facility,Salt River Project,55455,AZ,AZNM,Maricopa,33.334562,-112.840641,NG,GAS,WECC
Rio Rico Solar,"UNS Electric, Inc",59044,AZ,AZNM,Santa Cruz,31.5,-111.008056,SUN,SOLAR,WECC
Roger Road WWTP,Tucson Electric Power Co,57524,AZ,AZNM,Pima,32.2894,-111.0331,SUN,SOLAR,WECC
Roosevelt,Salt River Project,149,AZ,AZNM,Maricopa,33.671104,-111.161786,WAT,HYDRO,WECC
Saddle Mountain Solar I,Arizona Public Service Co,58213,AZ,AZNM,Maricopa,33.378333,-113.180833,SUN,SOLAR,WECC
Sandstone Solar,Salt River Project,59634,AZ,AZNM,Pinal,33.035556,-111.430278,SUN,SOLAR,WECC
Santan,Salt River Project,8068,AZ,AZNM,Maricopa,33.3325,-111.7503,NG,GAS,WECC
Solana Generating Station,Arizona Public Service Co,56812,AZ,AZNM,Maricopa,32.922294,-112.95594,SUN,SOLAR,WECC
South Consolidated,Salt River Project,100,AZ,AZNM,Maricopa,33.466477,-111.781064,WAT,HYDRO,WECC
"South Point Energy Center, LLC",WAPA-- Western Area Power Administration,55177,AZ,AZNM,Mohave,34.8678,-114.5317,NG,GAS,WECC
Springerville Generating Station,Tucson Electric Power Co,8223,AZ,AZNM,Apache,34.3186,-109.1639,SUB,COAL,WECC
SR85,Arizona Public Service Co,59444,AZ,AZNM,Maricopa,33.145,-112.66,SUN,SOLAR,WECC
Stewart Mountain,Salt River Project,150,AZ,AZNM,Maricopa,33.5661,-111.536,WAT,HYDRO,WECC
Sulphur Springs,Sulphur Springs Valley E C Inc,60381,AZ,AZNM,Cochise,32.0628,-109.919283,SUN,SOLAR,WECC
"Sun Streams, LLC",Southern California Edison Co,60827,AZ,CAMX,Maricopa,33.34884,-112.8348,SUN,SOLAR,WECC
Sundance Power Plant,WAPA-- Western Area Power Administration,55522,AZ,AZNM,Pinal,32.9285,-111.5899,NG,GAS,WECC
T0588 Phoenix - AZ,Salt River Project,61199,AZ,AZNM,Maricopa,33.447225,-112.217664,SUN,SOLAR,WECC
TAA Solar Facility,Tucson Electric Power Co,57391,AZ,AZNM,Pima,32.115833,-110.940833,SUN,SOLAR,WECC
Tech Park Solar,Tucson Electric Power Co,59455,AZ,AZNM,Pima,32.097884,-110.815696,SUN,SOLAR,WECC
Tri Cities,Salt River Project,7998,AZ,AZNM,Maricopa,33.4833,-111.8172,LFG,BIOMASS,WECC
UASTP I,Tucson Electric Power Co,57392,AZ,AZNM,Pima,32.096973,-110.8106,SUN,SOLAR,WECC
UASTP II,Tucson Electric Power Co,57717,AZ,AZNM,Pima,32.096973,-110.8106,SUN,SOLAR,WECC
Union HS at Casa Grande,Arizona Public Service Co,58516,AZ,AZNM,Pinal,32.936944,-111.738611,SUN,SOLAR,WECC
University of Arizona - Biosphere 2,USBIA-San Carlos Project,54594,AZ,AZNM,Pinal,32.578011,-110.852608,NG,GAS,WECC
Valencia,"UNS Electric, Inc",6515,AZ,AZNM,Santa Cruz,31.363472,-110.931343,NG,GAS,WECC
Valencia Solar,Tucson Electric Power Co,59454,AZ,AZNM,Pima,32.145833,-110.866944,SUN,SOLAR,WECC
Vista Grande HS at Casa Grande,Arizona Public Service Co,58517,AZ,AZNM,Pinal,32.891389,-111.713056,SUN,SOLAR,WECC
Waddell,Arizona Public Service Co,7164,AZ,AZNM,Maricopa,33.8447,-112.2714,WAT,HYDRO,WECC
Walmart Casa Grande,Arizona Public Service Co,57939,AZ,AZNM,Pinal,32.866837,-111.771751,SUN,SOLAR,WECC
Western Renewable Energy,"Navopache Electric Coop, Inc",56358,AZ,AZNM,Apache,34.093006,-109.289979,WDS,BIOMASS,WECC
White Wing Solar,Arizona Public Service Co,60572,AZ,CAMX,Yuma,32.994056,-113.508806,SUN,SOLAR,WECC
Yucca Power Plant,Arizona Public Service Co,120,AZ,AZNM,Yuma,32.7214,-114.7106,NG,GAS,WECC
Yuma Cogeneration Associates,Arizona Public Service Co,54694,AZ,AZNM,Yuma,32.728822,-114.654053,NG,GAS,WECC
1420 Coil Av #C,Los Angeles Department of Water & Power,57310,CA,CAMX,Los Angeles,33.794283,-118.241405,SUN,SOLAR,WECC
2081 Terzian Solar Project,Pacific Gas & Electric Co,58918,CA,CAMX,Fresno,36.67,-119.415833,SUN,SOLAR,WECC
2097 Helton Solar Project,Pacific Gas & Electric Co,58920,CA,CAMX,Merced,37.352222,-120.506944,SUN,SOLAR,WECC
2127 Harris Solar Project,Pacific Gas & Electric Co,58919,CA,CAMX,Butte,39.291667,-121.669722,SUN,SOLAR,WECC
2555 E Olympic Bl,Los Angeles Department of Water & Power,57871,CA,CAMX,Los Angeles,34.026944,-118.224167,SUN,SOLAR,WECC
85 A,Southern California Edison Co,52162,CA,CAMX,Kern,35.1011,-118.3372,WND,WIND,WECC
85 B,Southern California Edison Co,52163,CA,CAMX,Kern,35.1011,-118.3372,WND,WIND,WECC
A G Wishon,Pacific Gas & Electric Co,293,CA,CAMX,Madera,37.15105,-119.504724,WAT,HYDRO,WECC
ABEC Bidart-Old River LLC,Pacific Gas & Electric Co,58699,CA,CAMX,Kern,35.169722,-119.105556,OBG,BIOMASS,WECC
"Adelanto Solar II, LLC",Southern California Edison Co,59440,CA,CAMX,San Bernardino,34.557222,-117.3775,SUN,SOLAR,WECC
Adelanto Solar Project,Intermountain Power Agency,57305,CA,CAMX,San Bernardino,34.550833,-117.435277,SUN,SOLAR,WECC
"Adelanto Solar, LLC",Southern California Edison Co,59441,CA,CAMX,San Bernardino,34.557222,-117.3775,SUN,SOLAR,WECC
Adera Solar,Pacific Gas & Electric Co,60027,CA,CAMX,Madera,37.120586,-120.32488,SUN,SOLAR,WECC
Adobe San Jose,Pacific Gas & Electric Co,57811,CA,CAMX,Santa Clara,37.330556,-121.893056,NG,GAS,WECC
Aera San Ardo Cogen Facility,Pacific Gas & Electric Co,55184,CA,CAMX,Monterey,35.953293,-120.859952,NG,GAS,WECC
Aera South Belridge Cogen Facility,Pacific Gas & Electric Co,55185,CA,CAMX,Kern,35.4292,-119.6864,NG,GAS,WECC
Aerojet I,Southern California Edison Co,57697,CA,CAMX,Sacramento,38.613508,-121.162879,SUN,SOLAR,WECC
Aerojet II,Southern California Edison Co,57698,CA,CAMX,Sacramento,38.6086,-121.1703,SUN,SOLAR,WECC
AES Alamitos,Southern California Edison Co,315,CA,CAMX,Los Angeles,33.7688,-118.1009,NG,GAS,WECC
"AES ES ALAMITOS, LLC",Southern California Edison Co,61204,CA,CAMX,Los Angeles,33.770202,-118.099665,MWH,OTHF,WECC
AES Huntington Beach,Southern California Edison Co,335,CA,CAMX,Orange,33.6439,-117.9792,NG,GAS,WECC
AES Redondo Beach,Southern California Edison Co,356,CA,CAMX,Los Angeles,33.8504,-118.395,NG,GAS,WECC
Agnews Power Plant,Pacific Gas & Electric Co,50748,CA,CAMX,Santa Clara,37.4058,-121.9272,NG,GAS,WECC
Agua Mansa Power,City of Colton - (CA),55951,CA,CAMX,San Bernardino,34.0414,-117.3603,NG,GAS,WECC
Aidlin Geothermal Power Plant,Pacific Gas & Electric Co,52158,CA,CAMX,Sonoma,38.8339,-122.881,GEO,GEOTHERMAL,WECC
Alameda,City of Alameda,7450,CA,CAMX,Alameda,37.7886,-122.2889,NG,GAS,WECC
Alamo,Southern California Edison Co,905,CA,CAMX,Los Angeles,34.8158,-118.6867,WAT,HYDRO,WECC
Alamo Solar,Southern California Edison Co,59469,CA,CAMX,San Bernardino,34.682222,-117.3475,SUN,SOLAR,WECC
Algonquin Power Sanger LLC,Pacific Gas & Electric Co,57564,CA,CAMX,Fresno,36.6842,-119.5522,NG,GAS,WECC
"Algonquin SKIC 10 Solar, LLC",Pacific Gas & Electric Co,60242,CA,CAMX,Kern,35.126111,-119.243361,SUN,SOLAR,WECC
Algonquin SKIC20 Solar LLC,Pacific Gas & Electric Co,59412,CA,CAMX,Kern,35.126111,-119.243333,SUN,SOLAR,WECC
Aliso Water Management Agency,Southern California Edison Co,10820,CA,CAMX,Orange,33.537922,-117.70585,OBG,BIOMASS,WECC
Almond Power Plant,Turlock Irrigation District,7315,CA,CAMX,Stanislaus,37.5744,-120.985,NG,GAS,WECC
Alpaugh 50,Pacific Gas & Electric Co,58003,CA,CAMX,Tulare,35.898333,-119.435278,SUN,SOLAR,WECC
Alpaugh North,Pacific Gas & Electric Co,58002,CA,CAMX,Tulare,35.9025,-119.442778,SUN,SOLAR,WECC
Alpine Solar,Southern California Edison Co,57295,CA,CAMX,Los Angeles,34.7892,-118.5047,SUN,SOLAR,WECC
Alta Mesa Project Phase IV,Southern California Edison Co,55352,CA,CAMX,Riverside,33.946389,-116.663333,WND,WIND,WECC
Alta Powerhouse,Pacific Gas & Electric Co,214,CA,CAMX,Placer,39.215979,-120.80355,WAT,HYDRO,WECC
Alta Wind Energy Center I,Southern California Edison Co,57282,CA,CAMX,Kern,35.033725,-118.353422,WND,WIND,WECC
Alta Wind Energy Center II,Southern California Edison Co,57291,CA,CAMX,Kern,35.023889,-118.295278,WND,WIND,WECC
Alta Wind Energy Center III,Southern California Edison Co,57292,CA,CAMX,Kern,35.023889,-118.295278,WND,WIND,WECC
Alta Wind Energy Center IV,Southern California Edison Co,57293,CA,CAMX,Kern,35.008611,-118.242222,WND,WIND,WECC
Alta Wind Energy Center V,Southern California Edison Co,57294,CA,CAMX,Kern,35.008611,-118.242222,WND,WIND,WECC
Alta Wind VIII,Southern California Edison Co,57835,CA,CAMX,Kern,35.026683,-118.234811,WND,WIND,WECC
Alta Wind X,Southern California Edison Co,58394,CA,CAMX,Kern,35.06,-118.2,WND,WIND,WECC
Alta Wind XI,Southern California Edison Co,58395,CA,CAMX,Kern,35.065,-118.39,WND,WIND,WECC
AltaGas Pomona Energy Inc.,Southern California Edison Co,50300,CA,CAMX,Los Angeles,34.059444,-117.774167,NG,GAS,WECC
AltaGas Ripon Energy Inc.,Pacific Gas & Electric Co,50299,CA,CAMX,San Joaquin,37.732533,-121.116006,NG,GAS,WECC
Altamont Gas Recovery,Pacific Gas & Electric Co,50571,CA,CAMX,Alameda,37.749308,-121.649866,LFG,BIOMASS,WECC
Altamont Midway Ltd,Pacific Gas & Electric Co,50001,CA,CAMX,San Joaquin,37.7392,-121.4322,WND,WIND,WECC
Altech III,Southern California Edison Co,50485,CA,CAMX,Riverside,33.915023,-116.555064,WND,WIND,WECC
Alvarado Hydro Facility,San Diego Gas & Electric Co,54242,CA,CAMX,San Diego,32.7814,-117.0411,WAT,HYDRO,WECC
Amazon - Patterson PV,Pacific Gas & Electric Co,61377,CA,CAMX,Stanislaus,37.468888,-121.166326,SUN,SOLAR,WECC
Amazon San Bernardino,Southern California Edison Co,59800,CA,CAMX,San Bernardino,34.088408,-117.245839,NG,GAS,WECC
Amedee Geothermal Venture I,Pacific Gas & Electric Co,50964,CA,CAMX,Lassen,40.300833,-120.105,GEO,GEOTHERMAL,WECC
Ameresco Butte County,Pacific Gas & Electric Co,57771,CA,CAMX,Butte,39.674,-121.73,LFG,BIOMASS,WECC
Ameresco Chiquita Canyon,Southern California Edison Co,56898,CA,CAMX,Los Angeles,34.431664,-118.642855,LFG,BIOMASS,WECC
Ameresco Forward,Pacific Gas & Electric Co,58437,CA,CAMX,San Joaquin,37.883406,-121.185104,LFG,BIOMASS,WECC
Ameresco Johnson Canyon,Pacific Gas & Electric Co,58397,CA,CAMX,Monterey,36.534167,-121.408611,LFG,BIOMASS,WECC
Ameresco Keller Canyon,Pacific Gas & Electric Co,56897,CA,CAMX,Contra Costa,38.003928,-121.934491,LFG,BIOMASS,WECC
Ameresco Ox Mountain,Pacific Gas & Electric Co,56895,CA,CAMX,San Mateo,37.5,-122.4,LFG,BIOMASS,WECC
Ameresco San Joaquin,Pacific Gas & Electric Co,58436,CA,CAMX,San Joaquin,38.029722,-120.929722,LFG,BIOMASS,WECC
Ameresco Santa Cruz Energy,Pacific Gas & Electric Co,56428,CA,CAMX,Santa Cruz,36.9178,-121.8156,LFG,BIOMASS,WECC
Ameresco Vasco Road,Pacific Gas & Electric Co,58435,CA,CAMX,Alameda,37.754444,-121.728889,LFG,BIOMASS,WECC
"American Kings Solar, LLC",Pacific Gas & Electric Co,60777,CA,CAMX,Kings,36.24,-119.898,SUN,SOLAR,WECC
Ampersand Chowchilla Biomass LLC,Pacific Gas & Electric Co,56706,CA,CAMX,Madera,37.106668,-120.248504,WDS,BIOMASS,WECC
Anaheim Combustion Turbine,City of Anaheim - (CA),7693,CA,CAMX,Orange,33.853542,-117.856286,NG,GAS,WECC
Anaheim Solar Energy Plant,City of Anaheim - (CA),59416,CA,CAMX,Orange,33.8025,-117.919722,SUN,SOLAR,WECC
Angels,Pacific Gas & Electric Co,215,CA,CAMX,Calaveras,38.071944,-120.539444,WAT,HYDRO,WECC
Anheuser-Busch #2,Pacific Gas & Electric Co,59331,CA,CAMX,Solano,38.233611,-122.0925,WND,WIND,WECC
Antelope Big Sky Ranch,Southern California Edison Co,60279,CA,CAMX,Los Angeles,34.694839,-118.28769,SUN,SOLAR,WECC
Antelope DSR 1,Southern California Edison Co,60186,CA,CAMX,Los Angeles,34.655556,-118.280722,SUN,SOLAR,WECC
Antelope DSR 2,Southern California Edison Co,60187,CA,CAMX,Los Angeles,34.686944,-118.311722,SUN,SOLAR,WECC
Antelope DSR 3,Southern California Edison Co,61265,CA,CAMX,Los Angeles,34.736859,-118.304071,SUN,SOLAR,WECC
Antelope Expansion 2,Southern California Edison Co,61264,CA,CAMX,Los Angeles,34.744977,-118.309153,SUN,SOLAR,WECC
"AP North Lake I, LP",Southern California Edison Co,59610,CA,CAMX,Riverside,33.74,-117.010556,SUN,SOLAR,WECC
Apple Campus 2 Fuel Cell,Pacific Gas & Electric Co,59557,CA,CAMX,Santa Clara,37.33,-122.01,OBG,BIOMASS,WECC
Apple Campus 2 PV,Pacific Gas & Electric Co,59473,CA,CAMX,Santa Clara,37.33,-122.01,SUN,SOLAR,WECC
Argus Cogen Plant,Southern California Edison Co,10684,CA,CAMX,San Bernardino,35.765,-117.3833,RC,COAL,WECC
Arrache 4006,Southern California Edison Co,58445,CA,CAMX,Los Angeles,34.655,-118.051111,SUN,SOLAR,WECC
Arrache 4013,Southern California Edison Co,58446,CA,CAMX,Los Angeles,34.650556,-118.051944,SUN,SOLAR,WECC
Arrache 8083,Southern California Edison Co,58447,CA,CAMX,Los Angeles,34.647778,-118.061111,SUN,SOLAR,WECC
Aspiration G,Southern California Edison Co,59737,CA,CAMX,Fresno,36.552186,-120.352481,SUN,SOLAR,WECC
ASTI,Pacific Gas & Electric Co,58889,CA,CAMX,Sonoma,38.761389,-122.975278,SUN,SOLAR,WECC
AT&T Anaheim,City of Anaheim - (CA),61154,CA,CAMX,Orange,33.836439,-117.916893,NG,GAS,WECC
AT&T Holger,Pacific Gas & Electric Co,61153,CA,CAMX,Santa Clara,37.417638,-121.94453,NG,GAS,WECC
Atwell Island,Pacific Gas & Electric Co,58366,CA,CAMX,Tulare,35.895,-119.510833,SUN,SOLAR,WECC
Atwell Island West Solar,Pacific Gas & Electric Co,59414,CA,CAMX,Tulare,35.815,-119.459722,SUN,SOLAR,WECC
AV Solar Ranch One,Southern California Edison Co,57378,CA,CAMX,Los Angeles,34.780278,-118.42444,SUN,SOLAR,WECC
Avenal Park,Pacific Gas & Electric Co,57359,CA,CAMX,Kings,35.989722,-120.11,SUN,SOLAR,WECC
AVS Lancaster 1,Southern California Edison Co,60085,CA,CAMX,Los Angeles,34.748894,-117.973571,SUN,SOLAR,WECC
Azusa,Southern California Edison Co,6449,CA,CAMX,Los Angeles,34.1548,-117.9093,WAT,HYDRO,WECC
B Braun Medical,Southern California Edison Co,50200,CA,CAMX,Orange,33.688721,-117.834793,NG,GAS,WECC
Badger Creek Limited,Pacific Gas & Electric Co,10650,CA,CAMX,Kern,35.483736,-119.029856,NG,GAS,WECC
Baker Creek Hydroelectric,Pacific Gas & Electric Co,59428,CA,CAMX,Humboldt,40.526389,-123.725556,WAT,HYDRO,WECC
Bakersfield 111,Pacific Gas & Electric Co,59948,CA,NWPP,Kern,35.317551,-118.989894,SUN,SOLAR,WECC
Bakersfield College Solar 01,Pacific Gas & Electric Co,57655,CA,CAMX,Kern,35.411817,-118.96864,SUN,SOLAR,WECC
Bakersfield Industrial PV 1,Pacific Gas & Electric Co,61118,CA,CAMX,Kern,35.330032,-118.993119,SUN,SOLAR,WECC
Bakersfield PV 1,Pacific Gas & Electric Co,61117,CA,CAMX,Kern,35.324982,-118.981522,SUN,SOLAR,WECC
Balch 1,Pacific Gas & Electric Co,217,CA,CAMX,Fresno,36.909137,-119.087712,WAT,HYDRO,WECC
Balch 2,Pacific Gas & Electric Co,218,CA,CAMX,Fresno,36.908907,-119.087556,WAT,HYDRO,WECC
Barre Generating Station,Southern California Edison Co,56474,CA,CAMX,Orange,33.8073,-117.9832,NG,GAS,WECC
"Bayshore Solar A, LLC",Southern California Edison Co,60481,CA,CAMX,Los Angeles,34.667817,-118.298089,SUN,SOLAR,WECC
"Bayshore Solar B, LLC",Southern California Edison Co,60474,CA,CAMX,Los Angeles,34.678305,-118.302649,SUN,SOLAR,WECC
"Bayshore Solar C, LLC",Southern California Edison Co,60475,CA,CAMX,Los Angeles,34.681338,-118.314087,SUN,SOLAR,WECC
Beacon BESS 1,Los Angeles Department of Water & Power,61431,CA,CAMX,Kern,35.256526,-118.027519,MWH,OTHF,WECC
Beacon Solar Plant Site 2,Los Angeles Department of Water & Power,59309,CA,CAMX,Kern,35.265833,-117.999167,SUN,SOLAR,WECC
Beacon Solar Plant Site 5,Los Angeles Department of Water & Power,59308,CA,CAMX,Kern,35.248889,-118.034444,SUN,SOLAR,WECC
Bear Canyon Power Plant,Pacific Gas & Electric Co,10469,CA,CAMX,Lake,38.762968,-122.692915,GEO,GEOTHERMAL,WECC
Bear Creek,Pacific Gas & Electric Co,50156,CA,CAMX,Shasta,40.534454,-121.959109,WAT,HYDRO,WECC
Bear Creek Solar,Pacific Gas & Electric Co,58508,CA,CAMX,San Joaquin,38.136389,-121.148889,SUN,SOLAR,WECC
Bear Mountain Limited,Pacific Gas & Electric Co,10649,CA,CAMX,Kern,35.419181,-118.926643,NG,GAS,WECC
Bear Valley,San Diego Gas & Electric Co,457,CA,CAMX,San Diego,33.166246,-117.016566,WAT,HYDRO,WECC
Bear Valley Power Plant,Bear Valley Electric Service,56346,CA,CAMX,San Bernardino,34.2506,-116.9025,NG,GAS,WECC
Beardsley,Pacific Gas & Electric Co,414,CA,CAMX,Tuolumne,38.202569,-120.076983,WAT,HYDRO,WECC
Belden,Pacific Gas & Electric Co,219,CA,CAMX,Plumas,40.007445,-121.249438,WAT,HYDRO,WECC
Beringer,Pacific Gas & Electric Co,58890,CA,CAMX,Sonoma,38.510833,-122.479722,SUN,SOLAR,WECC
Berry Cogen,Pacific Gas & Electric Co,50170,CA,CAMX,Kern,35.093046,-119.443617,NG,GAS,WECC
Berry Cogen Tanne Hills 18,Pacific Gas & Electric Co,50622,CA,CAMX,Kern,35.089829,-119.440881,NG,GAS,WECC
Berry Placerita Cogen,Southern California Edison Co,52096,CA,CAMX,Los Angeles,34.38407,-118.494882,NG,GAS,WECC
Bidwell Ditch Project,Pacific Gas & Electric Co,10880,CA,CAMX,Shasta,40.8014,-121.4481,WAT,HYDRO,WECC
Big Creek 1,Southern California Edison Co,317,CA,CAMX,Fresno,37.2042,-119.2396,WAT,HYDRO,WECC
Big Creek 2,Southern California Edison Co,318,CA,CAMX,Fresno,37.2,-119.3069,WAT,HYDRO,WECC
Big Creek 2A,Southern California Edison Co,322,CA,CAMX,Fresno,37.200062,-119.30681,WAT,HYDRO,WECC
Big Creek 3,Southern California Edison Co,319,CA,CAMX,Fresno,37.148517,-119.386623,WAT,HYDRO,WECC
Big Creek 4,Southern California Edison Co,320,CA,CAMX,Madera,37.139,-119.4898,WAT,HYDRO,WECC
Big Creek 8,Southern California Edison Co,321,CA,CAMX,Fresno,37.2096,-119.3289,WAT,HYDRO,WECC
Big Creek Water Works,Pacific Gas & Electric Co,10282,CA,CAMX,Trinity,40.646733,-123.498008,WAT,HYDRO,WECC
Big Pine Creek,Los Angeles Department of Water & Power,391,CA,CAMX,Inyo,37.142795,-118.324075,WAT,HYDRO,WECC
Big Valley Power LLC,Pacific Gas & Electric Co,10288,CA,CAMX,Lassen,41.1325,-121.137222,WDS,BIOMASS,WECC
Biola University,Southern California Edison Co,54296,CA,CAMX,Los Angeles,33.906953,-118.013105,NG,GAS,WECC
Bishop Creek 2,Southern California Edison Co,323,CA,CAMX,Inyo,37.273581,-118.573339,WAT,HYDRO,WECC
Bishop Creek 3,Southern California Edison Co,324,CA,CAMX,Inyo,37.301962,-118.531957,WAT,HYDRO,WECC
Bishop Creek 4,Southern California Edison Co,325,CA,CAMX,Inyo,37.323035,-118.501714,WAT,HYDRO,WECC
Bishop Creek 5,Southern California Edison Co,326,CA,CAMX,Inyo,37.3344,-118.4797,WAT,HYDRO,WECC
Bishop Creek 6,Southern California Edison Co,327,CA,CAMX,Inyo,37.3499,-118.4628,WAT,HYDRO,WECC
Black Butte,City of Santa Clara - (CA),7229,CA,CAMX,Tehama,39.814905,-122.332335,WAT,HYDRO,WECC
Black Rock I,Imperial Irrigation District,57477,CA,CAMX,Imperial,33.1594,-115.6144,GEO,GEOTHERMAL,WECC
Black Rock II,Imperial Irrigation District,57478,CA,CAMX,Imperial,33.1594,-115.6144,GEO,GEOTHERMAL,WECC
Black Rock III,Imperial Irrigation District,57479,CA,CAMX,Imperial,33.1594,-115.6144,GEO,GEOTHERMAL,WECC
Blacksand Generating Facility,Southern California Edison Co,56090,CA,CAMX,Orange,33.9328,-117.855,OG,OFSL,WECC
Blackwell Solar Park,Pacific Gas & Electric Co,59524,CA,CAMX,Kern,35.604167,-119.849722,SUN,SOLAR,WECC
Blue Lake Power LLC,Pacific Gas & Electric Co,10764,CA,CAMX,Humboldt,40.8786,-123.9942,WDS,BIOMASS,WECC
Blythe Energy,Southern California Edison Co,55295,CA,CAMX,Riverside,33.6157,-114.6865,NG,GAS,WECC
"Blythe Solar 110, LLC",Southern California Edison Co,60093,CA,CAMX,Riverside,33.68,-114.742,SUN,SOLAR,WECC
"Blythe Solar II, LLC",Southern California Edison Co,60092,CA,CAMX,Riverside,33.68,-114.73,SUN,SOLAR,WECC
"Blythe Solar III, LLC",Southern California Edison Co,60094,CA,CAMX,Riverside,33.656,-114.742,SUN,SOLAR,WECC
"Blythe Solar IV, LLC",Southern California Edison Co,60095,CA,CAMX,Riverside,33.682,-114.768,SUN,SOLAR,WECC
Bolthouse S&P and Rowen Farms Solar,Southern California Edison Co,56862,CA,CAMX,Los Angeles,34.5644,-117.6933,SUN,SOLAR,WECC
Borden Solar Farm,Pacific Gas & Electric Co,59531,CA,CAMX,Madera,36.941111,-119.96,SUN,SOLAR,WECC
Borel,Southern California Edison Co,328,CA,CAMX,Kern,35.588069,-118.524804,WAT,HYDRO,WECC
Borrego Springs Energy Storage,San Diego Gas & Electric Co,60565,CA,CAMX,San Diego,33.27011,-116.3496,MWH,OTHF,WECC
Bottle Rock Power,Pacific Gas & Electric Co,902,CA,CAMX,Lake,38.8348,-122.7677,GEO,GEOTHERMAL,WECC
"Bowerman Power LFG, LLC",Southern California Edison Co,59461,CA,CAMX,Orange,33.718889,-117.702222,LFG,BIOMASS,WECC
Bowman,Pacific Gas & Electric Co,50546,CA,CAMX,Nevada,39.448352,-120.653417,WAT,HYDRO,WECC
Box Canyon Dam,PacifiCorp,50179,CA,NWPP,Siskiyou,41.2792,-122.3292,WAT,HYDRO,WECC
BP Carson Refinery,Southern California Edison Co,50540,CA,CAMX,Los Angeles,33.8153,-118.2358,OG,OFSL,WECC
Bradley Gas Recovery,Los Angeles City of,56533,CA,CAMX,Los Angeles,34.2356,-118.3806,LFG,BIOMASS,WECC
Brawley,Imperial Irrigation District,383,CA,AZNM,Imperial,32.968889,-115.534444,DFO,OIL,WECC
Brea Expansion Plant,Southern California Edison Co,58007,CA,CAMX,Orange,33.932022,-117.840233,LFG,BIOMASS,WECC
Britton Powerhouse,Pacific Gas & Electric Co,56820,CA,CAMX,Shasta,41.021389,-121.675,WAT,HYDRO,WECC
Broadridge Cogen,Pacific Gas & Electric Co,57580,CA,CAMX,El Dorado,38.6183,-121.0564,NG,GAS,WECC
Broadway,City of Pasadena - (CA),420,CA,CAMX,Los Angeles,34.1254,-118.148,NG,GAS,WECC
Brookfield Tehachapi 1,Southern California Edison Co,57962,CA,CAMX,Kern,35.008333,-118.241389,WND,WIND,WECC
Buckeye Geothermal Power Plant,Pacific Gas & Electric Co,57180,CA,CAMX,Lake,38.8242,-122.84,GEO,GEOTHERMAL,WECC
Bucks Creek,Pacific Gas & Electric Co,220,CA,CAMX,Plumas,39.91062,-121.327692,WAT,HYDRO,WECC
Buena Vista Biomass Power,Pacific Gas & Electric Co,58472,CA,CAMX,Amador,38.277778,-120.913611,WDS,BIOMASS,WECC
Buena Vista Energy LLC,Pacific Gas & Electric Co,56446,CA,CAMX,Contra Costa,37.805,-121.6672,WND,WIND,WECC
Buidling L,Southern California Edison Co,60154,CA,CAMX,Los Angeles,33.912917,-118.041944,SUN,SOLAR,WECC
Building F,Southern California Edison Co,60151,CA,CAMX,Los Angeles,33.914356,-118.050189,SUN,SOLAR,WECC
Building G,Southern California Edison Co,60153,CA,CAMX,Los Angeles,33.912917,-118.050561,SUN,SOLAR,WECC
Burney Creek,Pacific Gas & Electric Co,10706,CA,CAMX,Shasta,40.8579,-121.7225,WAT,HYDRO,WECC
Burney Forest Products,Pacific Gas & Electric Co,10652,CA,CAMX,Shasta,40.879719,-121.720342,WDS,BIOMASS,WECC
Burney Mountain Power,Pacific Gas & Electric Co,54219,CA,CAMX,Shasta,40.909483,-121.640368,WDS,BIOMASS,WECC
Butt Valley,Pacific Gas & Electric Co,221,CA,CAMX,Plumas,40.175656,-121.190663,WAT,HYDRO,WECC
Butte College Main Campus Solar,Pacific Gas & Electric Co,57970,CA,CAMX,Butte,39.648056,-121.644167,SUN,SOLAR,WECC
C P Kelco San Diego Plant,San Diego Gas & Electric Co,52147,CA,CAMX,San Diego,32.6947,-117.1436,NG,GAS,WECC
C&H Sugar Plant,Pacific Gas & Electric Co,58251,CA,CAMX,Contra Costa,38.057222,-122.218889,PUR,OTHF,WECC
CA Department of Public Health at Richmo,Pacific Gas & Electric Co,60428,CA,CAMX,Contra Costa,37.92,-122.344,SUN,SOLAR,WECC
"CA Flats Solar 130, LLC",Pacific Gas & Electric Co,60033,CA,CAMX,San Luis Obispo,35.615573,-120.404352,SUN,SOLAR,WECC
"CA Flats Solar 150, LLC",Pacific Gas & Electric Co,60034,CA,CAMX,San Luis Obispo,35.615573,-120.404352,SUN,SOLAR,WECC
Cabazon Wind Farm,Southern California Edison Co,50552,CA,CAMX,Riverside,33.914986,-116.71026,WND,WIND,WECC
Cabazon Wind Partners,Southern California Edison Co,56011,CA,CAMX,Riverside,33.9172,-116.735,WND,WIND,WECC
Cabrillo Power I Encina Power Station,San Diego Gas & Electric Co,302,CA,CAMX,San Diego,33.1361,-117.3364,NG,GAS,WECC
Calabasas Gas to Energy Facility,Southern California Edison Co,57163,CA,CAMX,Los Angeles,34.1511,-118.7236,LFG,BIOMASS,WECC
California Dairy Energy I LLC,Southern California Edison Co,58971,CA,CAMX,Tulare,36.295,-119.416667,OBG,BIOMASS,WECC
California Institute of Technology,City of Pasadena - (CA),10262,CA,CAMX,Los Angeles,34.138467,-118.1256,NG,GAS,WECC
California PV Energy at ISD WWTP,Pacific Gas & Electric Co,59283,CA,CAMX,Contra Costa,38.001111,-121.703889,SUN,SOLAR,WECC
California State University San Bernardi,Southern California Edison Co,57544,CA,CAMX,San Bernardino,34.185833,-117.324167,NG,GAS,WECC
California Valley Solar Ranch,Pacific Gas & Electric Co,57439,CA,CAMX,San Luis Obispo,35.323739,-119.91663,SUN,SOLAR,WECC
Calipatria Solar Farm,Imperial Irrigation District,59088,CA,AZNM,Imperial,33.165833,-115.532222,SUN,SOLAR,WECC
Calistoga Power Plant,Pacific Gas & Electric Co,50066,CA,CAMX,Lake,38.7879,-122.7434,GEO,GEOTHERMAL,WECC
CalPeak Power - Border,San Diego Gas & Electric Co,55510,CA,CAMX,San Diego,32.562448,-116.943869,NG,GAS,WECC
CalPeak Power - Enterprise,San Diego Gas & Electric Co,55513,CA,CAMX,San Diego,33.121943,-117.117441,NG,GAS,WECC
CalPeak Power - Panoche,Pacific Gas & Electric Co,55508,CA,CAMX,Fresno,36.6535,-120.5783,NG,GAS,WECC
CalPeak Power - Vaca Dixon,Pacific Gas & Electric Co,55499,CA,CAMX,Solano,38.398867,-121.923973,NG,GAS,WECC
"Calpine Gilroy Cogen, LP",Pacific Gas & Electric Co,10034,CA,CAMX,Santa Clara,37.0001,-121.5367,NG,GAS,WECC
Calpine Sutter Energy Center,WAPA-- Western Area Power Administration,55112,CA,CAMX,Sutter,39.053139,-121.695873,NG,GAS,WECC
CalRenew-1,Pacific Gas & Electric Co,56768,CA,CAMX,Fresno,36.7575,-120.3658,SUN,SOLAR,WECC
Caltech Central,Southern California Edison Co,57460,CA,CAMX,Los Angeles,34.1358,-118.1267,OBG,BIOMASS,WECC
Camanche,Pacific Gas & Electric Co,537,CA,CAMX,San Joaquin,38.2268,-121.0245,WAT,HYDRO,WECC
Cameron Ridge LLC,Southern California Edison Co,10586,CA,CAMX,Kern,35.075,-118.3158,WND,WIND,WECC
Camino,Sacramento Municipal Util Dist,430,CA,CAMX,El Dorado,38.82881,-120.537089,WAT,HYDRO,WECC
Camp Far West,Pacific Gas & Electric Co,531,CA,CAMX,Placer,39.048802,-121.316966,WAT,HYDRO,WECC
Campo Verde Solar,San Diego Gas & Electric Co,58467,CA,CAMX,Imperial,32.753333,-115.726389,SUN,SOLAR,WECC
Cantua Solar Station,Pacific Gas & Electric Co,57522,CA,CAMX,Fresno,36.425085,-120.343543,SUN,SOLAR,WECC
Canyon Crest Academy,San Diego Gas & Electric Co,60568,CA,CAMX,San Diego,32.95907,-117.191622,MWH,OTHF,WECC
Canyon Power Plant,City of Anaheim - (CA),57027,CA,CAMX,Orange,33.858056,-117.861667,NG,GAS,WECC
Caribou 1,Pacific Gas & Electric Co,222,CA,CAMX,Plumas,40.085476,-121.148241,WAT,HYDRO,WECC
Caribou 2,Pacific Gas & Electric Co,223,CA,CAMX,Plumas,40.085997,-121.149373,WAT,HYDRO,WECC
Carlsbad Energy Center,San Diego Gas & Electric Co,59002,CA,CAMX,San Diego,33.14,-117.333611,NG,GAS,WECC
Carson Cogeneration,Sacramento Municipal Util Dist,7527,CA,CAMX,Sacramento,38.445681,-121.462387,NG,GAS,WECC
Carson Cogeneration Company,Southern California Edison Co,10169,CA,CAMX,Los Angeles,33.8759,-118.2491,NG,GAS,WECC
Cascade Solar,Southern California Edison Co,58590,CA,CAMX,San Bernardino,34.157222,-116.234444,SUN,SOLAR,WECC
Castaic,Los Angeles Department of Water & Power,392,CA,CAMX,Los Angeles,34.587237,-118.656638,WAT,HYDRO,WECC
Castle Rock Vineyards,Southern California Edison Co,57870,CA,CAMX,Tulare,35.801111,-119.110556,SUN,SOLAR,WECC
Castor Solar,Pacific Gas & Electric Co,60277,CA,CAMX,Kern,35.211044,-119.387258,SUN,SOLAR,WECC
"Catalina Solar 2, LLC",Southern California Edison Co,59334,CA,CAMX,Kern,34.812222,-118.352778,SUN,SOLAR,WECC
Catalina Solar LLC,Southern California Edison Co,57708,CA,CAMX,Kern,34.938261,-118.334492,SUN,SOLAR,WECC
CBS Studio Center,Los Angeles Department of Water & Power,58440,CA,CAMX,Los Angeles,34.145,-118.390833,NG,GAS,WECC
CBS Television City,Los Angeles Department of Water & Power,58253,CA,CAMX,Los Angeles,34.075,-118.36,SUN,SOLAR,WECC
CCCSD Wastewater Treatment Plnt,Pacific Gas & Electric Co,57573,CA,CAMX,Contra Costa,37.9978,-122.0697,NG,GAS,WECC
CDCR (CA) - Pleasant Valley State Prison,Pacific Gas & Electric Co,59748,CA,CAMX,Fresno,36.137219,-120.224445,SUN,SOLAR,WECC
CE Leathers,Imperial Irrigation District,10631,CA,AZNM,Imperial,33.1779,-115.565,GEO,GEOTHERMAL,WECC
CE Turbo LLC,Imperial Irrigation District,55984,CA,AZNM,Imperial,33.1669,-115.5114,GEO,GEOTHERMAL,WECC
CE&P Imperial Valley 1,Imperial Irrigation District,60670,CA,AZNM,Imperial,32.912778,-115.518333,OTH,OTHF,WECC
CED Avenal,Pacific Gas & Electric Co,60077,CA,CAMX,Kings,35.996324,-120.15146,SUN,SOLAR,WECC
CED Ducor 1,Southern California Edison Co,60078,CA,CAMX,Tulare,35.856278,-119.068414,SUN,SOLAR,WECC
CED Ducor 2,Southern California Edison Co,60079,CA,CAMX,Tulare,35.844167,-119.068069,SUN,SOLAR,WECC
CED Ducor 3,Southern California Edison Co,60080,CA,CAMX,Tulare,35.845378,-119.056992,SUN,SOLAR,WECC
CED Ducor 4,Southern California Edison Co,60081,CA,CAMX,Tulare,35.850403,-119.026992,SUN,SOLAR,WECC
Center Generating Station,Southern California Edison Co,56475,CA,CAMX,Los Angeles,33.9296,-118.1046,NG,GAS,WECC
Centerville PH,Pacific Gas & Electric Co,224,CA,CAMX,Butte,39.788877,-121.657383,WAT,HYDRO,WECC
Centinela Solar Energy,San Diego Gas & Electric Co,58430,CA,CAMX,Imperial,32.686944,-115.647778,SUN,SOLAR,WECC
Central Antelope Dry Ranch B LLC,Southern California Edison Co,60281,CA,CAMX,Los Angeles,34.705549,-118.301417,SUN,SOLAR,WECC
Central Antelope Dry Ranch C,Southern California Edison Co,59963,CA,CAMX,Los Angeles,34.720499,-118.30046,SUN,SOLAR,WECC
Central Utilities Plant LAX,Los Angeles City of,10048,CA,CAMX,Los Angeles,33.943965,-118.40425,NG,GAS,WECC
Central Utilities Plant LAX 2,Los Angeles Department of Water & Power,58258,CA,CAMX,Los Angeles,33.943889,-118.404167,NG,GAS,WECC
Central Valley Ag Power,Pacific Gas & Electric Co,58978,CA,CAMX,Stanislaus,37.719722,-120.898611,OBG,BIOMASS,WECC
Century Generating Facility,City of Colton - (CA),55934,CA,CAMX,San Bernardino,34.0606,-117.3533,NG,GAS,WECC
CES Placerita Power Plant,Southern California Edison Co,10677,CA,CAMX,Los Angeles,34.3801,-118.4999,NG,GAS,WECC
Chalk Cliff Limited,Pacific Gas & Electric Co,50003,CA,CAMX,Kern,35.0968,-119.4299,NG,GAS,WECC
Chalk Mountain Powerhouse,Pacific Gas & Electric Co,56821,CA,CAMX,Shasta,40.988056,-121.768333,WAT,HYDRO,WECC
Chicago Park,Pacific Gas & Electric Co,412,CA,CAMX,Nevada,39.177903,-120.890856,WAT,HYDRO,WECC
Childrens Hospital,San Diego Gas & Electric Co,10175,CA,CAMX,San Diego,32.7992,-117.1517,NG,GAS,WECC
Chili Bar,Pacific Gas & Electric Co,225,CA,CAMX,El Dorado,38.771764,-120.813239,WAT,HYDRO,WECC
Chowchilla II,Pacific Gas & Electric Co,56185,CA,CAMX,Madera,37.1073,-120.2485,NG,GAS,WECC
Chuckawalla Solar,Southern California Edison Co,58506,CA,CAMX,Riverside,33.568333,-114.918056,SUN,SOLAR,WECC
Chuckawalla Valley State Prison,Southern California Edison Co,57011,CA,CAMX,Riverside,33.565329,-114.903629,SUN,SOLAR,WECC
Chula Vista Energy Center,San Diego Gas & Electric Co,55540,CA,CAMX,San Diego,32.591667,-117.058611,NG,GAS,WECC
"CID Solar, LLC",Pacific Gas & Electric Co,59183,CA,CAMX,Kings,36.138056,-119.564722,SUN,SOLAR,WECC
Citizen B,Southern California Edison Co,59738,CA,CAMX,Fresno,36.723806,-120.432139,SUN,SOLAR,WECC
City of Hayward WWTP,Pacific Gas & Electric Co,58525,CA,CAMX,Alameda,37.633526,-122.139717,OBG,BIOMASS,WECC
City of Madera WWTP,Pacific Gas & Electric Co,57682,CA,CAMX,Madera,36.9408,-120.1572,SUN,SOLAR,WECC
City of Palo Alto,City of Palo Alto - (CA),57714,CA,CAMX,Santa Clara,37.4383,-122.1094,NG,GAS,WECC
City of Soledad Water Reclamation,Pacific Gas & Electric Co,59329,CA,CAMX,Monterey,36.421111,-121.340278,WND,WIND,WECC
City of Tulare Water Facility,Southern California Edison Co,59395,CA,CAMX,Tulare,36.185,-119.375,OBG,BIOMASS,WECC
Civic Center,Los Angeles Department of Water & Power,10623,CA,CAMX,Los Angeles,34.0564,-118.2436,NG,GAS,WECC
Clear Lake Hydro Project,Pacific Gas & Electric Co,50128,CA,CAMX,Lake,38.923556,-122.56668,WAT,HYDRO,WECC
Clearwater Power Plant,Southern California Edison Co,56356,CA,CAMX,Riverside,33.8912,-117.6085,NG,GAS,WECC
Cloverdale Solar Center,Pacific Gas & Electric Co,60813,CA,CAMX,Sonoma,38.769581,-123.020724,SUN,SOLAR,WECC
Cloverdale Solar I,Pacific Gas & Electric Co,58949,CA,CAMX,Sonoma,38.773056,-123.017778,SUN,SOLAR,WECC
Coachella,Imperial Irrigation District,6060,CA,AZNM,Riverside,33.6758,-116.1714,NG,GAS,WECC
Coal Canyon,Pacific Gas & Electric Co,226,CA,CAMX,Butte,39.605043,-121.600525,WAT,HYDRO,WECC
Coalinga 25D Cogen,Pacific Gas & Electric Co,52086,CA,CAMX,Fresno,36.1556,-120.3972,NG,GAS,WECC
Coalinga 6C Cogen,Pacific Gas & Electric Co,52083,CA,CAMX,Fresno,36.2097,-120.3828,NG,GAS,WECC
Coalinga Cogeneration Facility,Pacific Gas & Electric Co,50131,CA,CAMX,Fresno,36.1807,-120.3885,NG,GAS,WECC
Coalinga Cogeneration Facility,Pacific Gas & Electric Co,50750,CA,CAMX,Fresno,36.170317,-120.364084,NG,GAS,WECC
Coca Cola American Canyon,Pacific Gas & Electric Co,57807,CA,CAMX,Napa,38.190705,-122.275067,NG,GAS,WECC
Cold Canyon 1,Pacific Gas & Electric Co,58379,CA,CAMX,San Luis Obispo,35.186667,-120.599444,LFG,BIOMASS,WECC
Coleman PH,Pacific Gas & Electric Co,227,CA,CAMX,Shasta,40.404645,-122.121904,WAT,HYDRO,WECC
Colgate,Pacific Gas & Electric Co,454,CA,CAMX,Yuba,39.330833,-121.191666,WAT,HYDRO,WECC
Colgreen North Shore Solar Farm,Imperial Irrigation District,60825,CA,AZNM,Riverside,33.540124,-115.974771,SUN,SOLAR,WECC
Collierville Powerhouse,Pacific Gas & Electric Co,54555,CA,CAMX,Calaveras,38.144636,-120.380497,WAT,HYDRO,WECC
Collins Pine Project,Pacific Gas & Electric Co,10661,CA,CAMX,Plumas,40.303422,-121.244431,WDS,BIOMASS,WECC
Colon PV,Los Angeles Department of Water & Power,59798,CA,CAMX,Los Angeles,33.792694,-118.252407,SUN,SOLAR,WECC
"Colton Solar One, LLC",City of Colton - (CA),59597,CA,CAMX,San Bernardino,34.093333,-117.319444,SUN,SOLAR,WECC
"Colton Solar Two, LLC",City of Colton - (CA),59598,CA,CAMX,San Bernardino,34.042222,-117.361667,SUN,SOLAR,WECC
Columbia 3,Southern California Edison Co,58502,CA,CAMX,Kern,35.024722,-118.164167,SUN,SOLAR,WECC
"Columbia Solar Energy, LLC",Pacific Gas & Electric Co,59979,CA,CAMX,Contra Costa,38.019671,-121.86506,SUN,SOLAR,WECC
Colusa Generating Station,Pacific Gas & Electric Co,56532,CA,CAMX,Colusa,39.3661,-122.27,NG,GAS,WECC
Combie South,Pacific Gas & Electric Co,846,CA,CAMX,Nevada,39.0096,-121.0591,WAT,HYDRO,WECC
Commerce Refuse To Energy,Southern California Edison Co,10090,CA,CAMX,Los Angeles,33.9949,-118.1538,MSW,BIOMASS,WECC
Community Solar 1,Imperial Irrigation District,58545,CA,AZNM,Imperial,32.982778,-115.481944,SUN,SOLAR,WECC
Con Dios Solar 11,Southern California Edison Co,59264,CA,CAMX,San Bernardino,34.26,-116.335278,SUN,SOLAR,WECC
Con Dios Solar 3,Southern California Edison Co,59263,CA,CAMX,San Bernardino,34.259722,-116.340278,SUN,SOLAR,WECC
Contra Costa,Pacific Gas & Electric Co,228,CA,CAMX,Contra Costa,38.0192,-121.7642,NG,GAS,WECC
Control Gorge,Los Angeles Department of Water & Power,393,CA,CAMX,Inyo,37.437921,-118.556988,WAT,HYDRO,WECC
Coolwater,Southern California Edison Co,329,CA,CAMX,San Bernardino,34.8606,-116.8539,NG,GAS,WECC
Copco 1,PacifiCorp,294,CA,NWPP,Siskiyou,41.978914,-122.335317,WAT,HYDRO,WECC
Copco 2,PacifiCorp,295,CA,NWPP,Siskiyou,41.975716,-122.358127,WAT,HYDRO,WECC
Coram Energy LLC,Southern California Edison Co,54299,CA,CAMX,Kern,35.075,-118.3417,WND,WIND,WECC
Coram Energy LLC (ECT),San Diego Gas & Electric Co,54298,CA,CAMX,Kern,35.0583,-118.3417,WND,WIND,WECC
Coram Tehachapi,Southern California Edison Co,54750,CA,CAMX,Kern,35.0663,-118.339444,WND,WIND,WECC
Corcoran,Pacific Gas & Electric Co,60450,CA,CAMX,Kings,36.102307,-119.566516,SUN,SOLAR,WECC
Corcoran Solar,Pacific Gas & Electric Co,58374,CA,CAMX,Kings,36.138333,-119.573333,SUN,SOLAR,WECC
Corcoran Solar 2,Pacific Gas & Electric Co,59413,CA,CAMX,Kings,36.141944,-119.581667,SUN,SOLAR,WECC
Corcoran Solar 3,Pacific Gas & Electric Co,59900,CA,CAMX,Kings,36.15042,-119.58542,SUN,SOLAR,WECC
Corona,Southern California Edison Co,480,CA,CAMX,Riverside,33.85895,-117.6106,WAT,HYDRO,WECC
"Corona Energy Partners, Ltd",Southern California Edison Co,10635,CA,CAMX,Riverside,33.8827,-117.5565,NG,GAS,WECC
Coronal Lost Hills,Pacific Gas & Electric Co,59638,CA,CAMX,Kern,35.726667,-119.905833,SUN,SOLAR,WECC
Coronus Adelanto West 1,Southern California Edison Co,59536,CA,CAMX,San Bernardino,34.548056,-117.464444,SUN,SOLAR,WECC
Coronus Adelanto West 2,Southern California Edison Co,59537,CA,CAMX,San Bernardino,34.548056,-117.464444,SUN,SOLAR,WECC
Coso Energy Developers,Southern California Edison Co,10875,CA,CAMX,Inyo,36.0019,-117.7886,GEO,GEOTHERMAL,WECC
Coso Finance Partners,Southern California Edison Co,10873,CA,CAMX,Inyo,36.0372,-117.7981,GEO,GEOTHERMAL,WECC
Coso Power Developers,Southern California Edison Co,10874,CA,CAMX,Inyo,36.0192,-117.7917,GEO,GEOTHERMAL,WECC
Cosumnes Power Plant,Sacramento Municipal Util Dist,55970,CA,CAMX,Sacramento,38.338475,-121.123978,OG,OFSL,WECC
Cottonwood,Los Angeles Department of Water & Power,394,CA,CAMX,Inyo,36.443421,-118.04389,WAT,HYDRO,WECC
"Cottonwood Solar, LLC (City of Corcoran)",Pacific Gas & Electric Co,59087,CA,CAMX,Kings,36.134444,-119.554444,SUN,SOLAR,WECC
"Cottonwood Solar, LLC (Goose Lake)",Pacific Gas & Electric Co,59086,CA,CAMX,Kern,35.593611,-119.58,SUN,SOLAR,WECC
"Cottonwood Solar, LLC Cottonwood Carport",Pacific Gas & Electric Co,59703,CA,CAMX,Marin,38.129759,-122.568158,SUN,SOLAR,WECC
Covanta Delano Energy,Southern California Edison Co,10840,CA,CAMX,Kern,35.7144,-119.2337,,,WECC
Covanta Mendota,Pacific Gas & Electric Co,10837,CA,CAMX,Fresno,36.755896,-120.365422,NG,GAS,WECC
Covanta Stanislaus Energy,Pacific Gas & Electric Co,50632,CA,CAMX,Stanislaus,37.3853,-121.141,MSW,BIOMASS,WECC
Cove Hydroelectric,Pacific Gas & Electric Co,10707,CA,CAMX,Shasta,40.8713,-121.9487,WAT,HYDRO,WECC
Cow Creek,Pacific Gas & Electric Co,229,CA,CAMX,Shasta,40.570817,-122.02093,WAT,HYDRO,WECC
Coyote Creek,Southern California Edison Co,483,CA,CAMX,Orange,33.92493,-117.95517,WAT,HYDRO,WECC
Crafton Hills College Solar Farm,Southern California Edison Co,58170,CA,CAMX,San Bernardino,34.043056,-117.098889,SUN,SOLAR,WECC
Crazy Horse Solar Project,Pacific Gas & Electric Co,61285,CA,CAMX,Monterey,36.803269,-121.618971,SUN,SOLAR,WECC
Creed Energy Center,Pacific Gas & Electric Co,55625,CA,CAMX,Solano,38.242158,-121.854722,NG,GAS,WECC
Cresta,Pacific Gas & Electric Co,231,CA,CAMX,Butte,39.825907,-121.409687,WAT,HYDRO,WECC
Crockett Cogen Project,Pacific Gas & Electric Co,55084,CA,CAMX,Contra Costa,38.0569,-122.2161,NG,GAS,WECC
Crown Cooling Facility,Imperial Irrigation District,58527,CA,AZNM,Imperial,32.967222,-115.5325,SUN,SOLAR,WECC
CSD 2 - Heritage High,Pacific Gas & Electric Co,59130,CA,CAMX,Contra Costa,37.921944,-121.755556,SUN,SOLAR,WECC
CSD 2- Freedom High,Pacific Gas & Electric Co,59129,CA,CAMX,Contra Costa,37.969722,-121.719444,SUN,SOLAR,WECC
CSU East Bay,Pacific Gas & Electric Co,57042,CA,CAMX,Alameda,37.658889,-122.059444,NG,GAS,WECC
CSU Fresno Solar Project,Pacific Gas & Electric Co,56813,CA,CAMX,Fresno,36.809841,-119.741665,SUN,SOLAR,WECC
CSU Northridge Plant,Los Angeles Department of Water & Power,58422,CA,CAMX,Los Angeles,34.243333,-118.530556,NG,GAS,WECC
CSUCI Site Authority,Southern California Edison Co,50851,CA,CAMX,Ventura,34.161951,-119.047916,NG,GAS,WECC
CSUF Nutwood Solar,Southern California Edison Co,60979,CA,CAMX,Orange,33.87912,-117.8887,SUN,SOLAR,WECC
CSUF State College,Southern California Edison Co,60978,CA,CAMX,Orange,33.87912,-117.8887,SUN,SOLAR,WECC
CSUF Trigeneration,Southern California Edison Co,58169,CA,CAMX,Orange,33.880638,-117.88656,NG,GAS,WECC
CTV Power Purchase Contract Trust,Southern California Edison Co,54300,CA,CAMX,Kern,35.0583,-118.3083,WND,WIND,WECC
"Cuyama Solar, LLC",Pacific Gas & Electric Co,60043,CA,CAMX,Santa Barbara,34.901,-119.596,SUN,SOLAR,WECC
Cuyamaca Peak Energy,San Diego Gas & Electric Co,55512,CA,CAMX,San Diego,32.796491,-116.972071,NG,GAS,WECC
Cymric 31X Cogen,Pacific Gas & Electric Co,52081,CA,CAMX,Kern,35.3639,-119.6592,NG,GAS,WECC
Cymric 36W Cogen,Pacific Gas & Electric Co,52104,CA,CAMX,Kern,35.3633,-119.6756,NG,GAS,WECC
Cymric 6Z Cogen,Pacific Gas & Electric Co,52082,CA,CAMX,Kern,35.346102,-119.643431,NG,GAS,WECC
De Sabla,Pacific Gas & Electric Co,232,CA,CAMX,Butte,39.869265,-121.631819,WAT,HYDRO,WECC
Deadwood Creek,Pacific Gas & Electric Co,7507,CA,CAMX,Yuba,39.53,-121.095833,WAT,HYDRO,WECC
Deer Creek PH,Pacific Gas & Electric Co,233,CA,CAMX,Nevada,39.29807,-120.8443,WAT,HYDRO,WECC
Del Ranch Company,Imperial Irrigation District,10632,CA,AZNM,Imperial,33.1646,-115.616,GEO,GEOTHERMAL,WECC
"Delano Energy Center, LLC",Southern California Edison Co,58122,CA,CAMX,Tulare,35.790864,-119.294469,NG,GAS,WECC
Delano Land 1,Pacific Gas & Electric Co,61116,CA,CAMX,Kern,35.761217,-119.344408,SUN,SOLAR,WECC
"Delta Energy Center, LLC",Pacific Gas & Electric Co,55333,CA,CAMX,Contra Costa,38.0169,-121.8439,NG,GAS,WECC
Depot Park Solar System,Sacramento Municipal Util Dist,58119,CA,CAMX,Sacramento,38.515,-121.398333,SUN,SOLAR,WECC
Dept of General Services -FTB,Sacramento Municipal Util Dist,60861,CA,CAMX,Sacramento,38.565,-121.343,SUN,SOLAR,WECC
Desert Green Solar Farm LLC,San Diego Gas & Electric Co,57959,CA,CAMX,San Diego,33.27055,-116.34805,SUN,SOLAR,WECC
Desert Hot Springs Solar,Southern California Edison Co,58514,CA,CAMX,Riverside,33.923056,-116.53,SUN,SOLAR,WECC
Desert Quartzite,Southern California Edison Co,59871,CA,CAMX,Riverside,33.565,-114.753,SUN,SOLAR,WECC
"Desert Sunlight 250, LLC",Southern California Edison Co,58542,CA,CAMX,Riverside,33.8055,-115.3947,SUN,SOLAR,WECC
"Desert Sunlight 300, LLC",Southern California Edison Co,57993,CA,CAMX,Riverside,33.823056,-115.393889,SUN,SOLAR,WECC
Desert View Power,Imperial Irrigation District,10300,CA,AZNM,Riverside,33.586,-116.0873,WDS,BIOMASS,WECC
DESI-1 Battery Energy Storage Facility,Southern California Edison Co,60699,CA,CAMX,Orange,33.799248,-117.873371,MWH,OTHF,WECC
Devil Canyon,Southern California Edison Co,436,CA,CAMX,San Bernardino,34.2056,-117.3344,WAT,HYDRO,WECC
DGS Central Utility Plant,Sacramento Municipal Util Dist,58593,CA,CAMX,Sacramento,38.573889,-121.501389,NG,GAS,WECC
Diablo Canyon,Pacific Gas & Electric Co,6099,CA,CAMX,San Luis Obispo,35.211536,-120.855542,NUC,NUCLEAR,WECC
Diablo Wind LLC,Pacific Gas & Electric Co,56271,CA,CAMX,Alameda,37.763653,-121.614392,WND,WIND,WECC
Diamond Valley Lake,Southern California Edison Co,7942,CA,CAMX,Riverside,33.6808,-117.0698,WAT,HYDRO,WECC
Diamond Valley Solar Project,Southern California Edison Co,59405,CA,CAMX,Riverside,33.713056,-117.0725,SUN,SOLAR,WECC
Difwind Farms Ltd I,Southern California Edison Co,54681,CA,CAMX,Riverside,33.898856,-116.57281,WND,WIND,WECC
Difwind Farms Ltd II,Southern California Edison Co,54682,CA,CAMX,Riverside,33.893685,-116.567811,WND,WIND,WECC
Difwind Farms Ltd V,Southern California Edison Co,54685,CA,CAMX,Riverside,33.887401,-116.578231,WND,WIND,WECC
Difwind Farms Ltd VI,Southern California Edison Co,54686,CA,CAMX,Kern,35.0506,-118.1714,WND,WIND,WECC
Difwind Farms Ltd VII,Pacific Gas & Electric Co,10815,CA,CAMX,Alameda,37.7581,-121.5253,WND,WIND,WECC
Difwind Farms Ltd VIII,Southern California Edison Co,54687,CA,CAMX,Kern,35.0506,-118.1714,WND,WIND,WECC
Dillon Wind LLC,Southern California Edison Co,56791,CA,CAMX,Riverside,33.9393,-116.5527,WND,WIND,WECC
Dinosaur Point,Pacific Gas & Electric Co,10005,CA,CAMX,Merced,37.0478,-121.1708,WND,WIND,WECC
Dinuba Energy,Pacific Gas & Electric Co,60100,CA,CAMX,Tulare,36.571485,-119.419176,NG,GAS,WECC
Dinuba Wastewater Treatment Plant,Pacific Gas & Electric Co,57827,CA,CAMX,Tulare,36.538056,-119.426388,SUN,SOLAR,WECC
Dion R Holm,Pacific Gas & Electric Co,380,CA,CAMX,Tuolumne,37.896649,-119.9675,WAT,HYDRO,WECC
Division,,300,CA,CAMX,San Diego,32.681667,-117.120277,DFO,OIL,WECC
Division 1,Southern California Edison Co,59094,CA,CAMX,Los Angeles,34.708333,-118.130556,SUN,SOLAR,WECC
Division 2,Southern California Edison Co,59095,CA,CAMX,Los Angeles,34.708333,-118.130556,SUN,SOLAR,WECC
Division 3,Southern California Edison Co,59096,CA,CAMX,Los Angeles,34.708333,-118.130556,SUN,SOLAR,WECC
Dome Project,Pacific Gas & Electric Co,54449,CA,CAMX,Kern,35.220833,-119.583056,NG,GAS,WECC
Dominguez Plant,Southern California Edison Co,52064,CA,CAMX,Los Angeles,33.8431,-118.2347,WH,OTHF,WECC
Don Pedro,Turlock Irrigation District,439,CA,CAMX,Tuolumne,37.695994,-120.420152,WAT,HYDRO,WECC
Donald Von Raesfeld,City of Santa Clara - (CA),56026,CA,CAMX,Santa Clara,37.3767,-121.9508,NG,GAS,WECC
Donnells,Pacific Gas & Electric Co,415,CA,CAMX,Tuolumne,38.246656,-120.034072,WAT,HYDRO,WECC
Double C Generation Limited Partnership,Pacific Gas & Electric Co,50493,CA,CAMX,Kern,35.5005,-119.046,NG,GAS,WECC
Drews Generating Facility,City of Colton - (CA),55935,CA,CAMX,San Bernardino,34.0609,-117.3532,NG,GAS,WECC
Drop 1,Imperial Irrigation District,585,CA,AZNM,Imperial,32.711611,-114.942666,WAT,HYDRO,WECC
Drop 2 (CA),Imperial Irrigation District,385,CA,AZNM,Imperial,32.705435,-115.030975,WAT,HYDRO,WECC
Drop 3 (CA),Imperial Irrigation District,386,CA,AZNM,Imperial,32.705428,-115.126103,WAT,HYDRO,WECC
Drop 4,Imperial Irrigation District,387,CA,AZNM,Imperial,32.705341,-115.219067,WAT,HYDRO,WECC
Drop 5,Imperial Irrigation District,314,CA,AZNM,Imperial,32.673097,-115.392026,WAT,HYDRO,WECC
Drum 1,Pacific Gas & Electric Co,235,CA,CAMX,Placer,39.256873,-120.767437,WAT,HYDRO,WECC
Drum 2,Pacific Gas & Electric Co,236,CA,CAMX,Placer,39.257388,-120.767046,WAT,HYDRO,WECC
DSH (CA) - Coalinga State Hospital,Pacific Gas & Electric Co,59746,CA,CAMX,Fresno,36.13726,-120.218453,SUN,SOLAR,WECC
DTE Stockton,Pacific Gas & Electric Co,54238,CA,CAMX,San Joaquin,37.943633,-121.330433,WDS,BIOMASS,WECC
Dulles,Southern California Edison Co,60182,CA,CAMX,Riverside,34.030119,-117.517753,SUN,SOLAR,WECC
Dutch Flat,Pacific Gas & Electric Co,237,CA,CAMX,Placer,39.216985,-120.835587,WAT,HYDRO,WECC
Dutch Flat 2,Pacific Gas & Electric Co,413,CA,CAMX,Nevada,39.2184,-120.8352,WAT,HYDRO,WECC
Dutch Wind Energy,Southern California Edison Co,57301,CA,CAMX,Riverside,33.8942,-116.5603,WND,WIND,WECC
Dyer Road,Pacific Gas & Electric Co,50818,CA,CAMX,San Joaquin,37.7392,-121.4322,WND,WIND,WECC
Dynegy Oakland Power Plant,Pacific Gas & Electric Co,6211,CA,CAMX,Alameda,37.79675,-122.28185,JF,OIL,WECC
E F Oxnard Energy Facility,Southern California Edison Co,10776,CA,CAMX,Ventura,34.1958,-119.1664,NG,GAS,WECC
E&B Resources,Pacific Gas & Electric Co,60446,CA,CAMX,Kern,35.534584,-119.060029,SUN,SOLAR,WECC
EAFB - North Base,Southern California Edison Co,59132,CA,CAMX,Kern,34.9325,-117.907222,SUN,SOLAR,WECC
EAFB - South Base,Southern California Edison Co,59133,CA,CAMX,Kern,34.917222,-117.900278,SUN,SOLAR,WECC
East Highline,Imperial Irrigation District,586,CA,AZNM,Imperial,32.699451,-115.28245,WAT,HYDRO,WECC
East Portal Generator,Southern California Edison Co,50375,CA,CAMX,Los Angeles,34.2619,-118.6242,WAT,HYDRO,WECC
East Winds Project,Southern California Edison Co,50820,CA,CAMX,Riverside,33.890913,-116.541515,WND,WIND,WECC
EDF Renewable Windfarm V Inc,Pacific Gas & Electric Co,54453,CA,CAMX,Solano,38.1167,-121.8333,WND,WIND,WECC
Edom Hills Project 1 LLC,Southern California Edison Co,50553,CA,CAMX,Riverside,33.881667,-116.460278,WND,WIND,WECC
Edward C Hyatt,Pacific Gas & Electric Co,437,CA,CAMX,Butte,39.542985,-121.492188,WAT,HYDRO,WECC
Edwards Air Force Base,Southern California Edison Co,58076,CA,CAMX,Kern,34.9077,-117.9206,SUN,SOLAR,WECC
El Cajon,San Diego Gas & Electric Co,301,CA,CAMX,San Diego,32.7958,-116.9722,NG,GAS,WECC
El Cajon Energy Center,San Diego Gas & Electric Co,57001,CA,CAMX,San Diego,32.796106,-116.972073,NG,GAS,WECC
El Cajon Energy Storage,San Diego Gas & Electric Co,60569,CA,CAMX,San Diego,32.8115,-117.050546,MWH,OTHF,WECC
El Centro,Imperial Irrigation District,389,CA,AZNM,Imperial,32.802222,-115.54,NG,GAS,WECC
El Dorado,Pacific Gas & Electric Co,238,CA,CAMX,El Dorado,38.793574,-120.619152,WAT,HYDRO,WECC
El Nido Facility,Pacific Gas & Electric Co,56707,CA,CAMX,Merced,37.1867,-120.4903,WDS,BIOMASS,WECC
El Segundo,Southern California Edison Co,330,CA,CAMX,Los Angeles,33.910556,-118.425,NG,GAS,WECC
El Segundo Cogen,Southern California Edison Co,10213,CA,CAMX,Los Angeles,33.9058,-118.4031,NG,GAS,WECC
El Sobrante Gas Recovery,Southern California Edison Co,56534,CA,CAMX,Riverside,33.793842,-117.475112,LFG,BIOMASS,WECC
ELACC Photovoltaic Power Facility,Southern California Edison Co,56814,CA,CAMX,Los Angeles,34.040278,-118.148056,SUN,SOLAR,WECC
Eland 1 Solar Farm,Los Angeles Department of Water & Power,61168,CA,CAMX,Kern,35.2237,-117.977,SUN,SOLAR,WECC
Eland 2 Solar Farm,Los Angeles Department of Water & Power,61169,CA,CAMX,Kern,35.2167,-117.977,SUN,SOLAR,WECC
Electra,Pacific Gas & Electric Co,239,CA,CAMX,Amador,38.330985,-120.669901,WAT,HYDRO,WECC
Elevation Solar C,Southern California Edison Co,59964,CA,CAMX,Los Angeles,34.730263,-118.30425,SUN,SOLAR,WECC
Elk Hills Cogen,Pacific Gas & Electric Co,55950,CA,CAMX,Kern,35.479146,-119.737464,NG,GAS,WECC
Elk Hills Power,Pacific Gas & Electric Co,55400,CA,CAMX,Kern,35.280318,-119.470707,NG,GAS,WECC
Ellwood,Southern California Edison Co,8076,CA,CAMX,Santa Barbara,34.431419,-119.900055,NG,GAS,WECC
Elmore Company,Imperial Irrigation District,10634,CA,AZNM,Imperial,33.1777,-115.6033,GEO,GEOTHERMAL,WECC
Encina Water Pollution Control,San Diego Gas & Electric Co,10026,CA,CAMX,San Diego,33.1165,-117.3215,OBG,BIOMASS,WECC
Energy Center,Southern California Edison Co,58168,CA,CAMX,San Bernardino,34.063056,-117.163889,NG,GAS,WECC
Energy Nuevo Storage Farm,Pacific Gas & Electric Co,60646,CA,CAMX,Fresno,36.702036,-119.883003,MWH,OTHF,WECC
Enerparc CA1 LLC,Pacific Gas & Electric Co,59122,CA,CAMX,San Benito,36.831667,-121.404167,SUN,SOLAR,WECC
"Enerparc CA2, LLC",Pacific Gas & Electric Co,59978,CA,NWPP,Glenn,39.69898,-122.175583,SUN,SOLAR,WECC
Equilon Los Angeles Refining,Los Angeles Department of Water & Power,50530,CA,CAMX,Los Angeles,33.791667,-118.234722,OG,OFSL,WECC
Equinix San Jose,Pacific Gas & Electric Co,60223,CA,CAMX,Santa Clara,37.241713,-121.781363,NG,GAS,WECC
"Escondido Energy Center, LLC",San Diego Gas & Electric Co,55538,CA,CAMX,San Diego,33.1261,-117.1172,NG,GAS,WECC
Escondido Energy Storage,San Diego Gas & Electric Co,60570,CA,CAMX,San Diego,33.124446,-117.114274,MWH,OTHF,WECC
ESI Project,Pacific Gas & Electric Co,50819,CA,CAMX,Alameda,37.739167,-121.432222,WND,WIND,WECC
Etiwanda,Southern California Edison Co,745,CA,CAMX,San Bernardino,34.10345,-117.5257,WAT,HYDRO,WECC
Etiwanda Generating Station,Southern California Edison Co,331,CA,CAMX,San Bernardino,34.09118,-117.52663,NG,GAS,WECC
Exchequer,Pacific Gas & Electric Co,409,CA,CAMX,Mariposa,37.584345,-120.26859,WAT,HYDRO,WECC
Exeter Solar,Southern California Edison Co,58306,CA,CAMX,Tulare,36.2675,-119.128581,SUN,SOLAR,WECC
Expressway Solar A,Southern California Edison Co,58761,CA,CAMX,San Bernardino,34.582222,-117.341667,SUN,SOLAR,WECC
Expressway Solar B,Southern California Edison Co,58762,CA,CAMX,San Bernardino,34.583333,-117.340278,SUN,SOLAR,WECC
Expressway Solar C2,Southern California Edison Co,58763,CA,CAMX,San Bernardino,34.584444,-117.341389,SUN,SOLAR,WECC
ExxonMobil Santa Ynez Facility,Southern California Edison Co,50270,CA,CAMX,Santa Barbara,34.464819,-120.044365,NG,GAS,WECC
FAA NorCal TRACON,Sacramento Municipal Util Dist,58261,CA,CAMX,Sacramento,38.559533,-121.257556,SUN,SOLAR,WECC
Fairhaven Power,Pacific Gas & Electric Co,10052,CA,CAMX,Humboldt,40.7995,-124.2028,WDS,BIOMASS,WECC
Fall Creek,PacifiCorp,296,CA,NWPP,Siskiyou,41.985605,-122.360455,WAT,HYDRO,WECC
Fallbrook Energy Storage,San Diego Gas & Electric Co,61365,CA,CAMX,San Diego,33.384244,-117.235322,MWH,OTHF,WECC
Farad,Sierra Pacific Power Co,6512,CA,NWPP,Nevada,39.394267,-120.021732,WAT,HYDRO,WECC
Farmersville,Southern California Edison Co,59203,CA,CAMX,Tulare,36.19,-119.12,SUN,SOLAR,WECC
Feather River Energy Center,Pacific Gas & Electric Co,55847,CA,CAMX,Sutter,39.109344,-121.60931,NG,GAS,WECC
Five Points Solar Park,Pacific Gas & Electric Co,59523,CA,CAMX,Fresno,36.386944,-120.236667,SUN,SOLAR,WECC
Five Points Solar Station,Pacific Gas & Electric Co,57498,CA,CAMX,Fresno,36.400278,-120.103333,SUN,SOLAR,WECC
Folsom,WAPA-- Western Area Power Administration,441,CA,NWPP,Sacramento,38.70675,-121.158443,WAT,HYDRO,WECC
Fontana,Southern California Edison Co,332,CA,CAMX,San Bernardino,34.155162,-117.397119,WAT,HYDRO,WECC
Foothill,Los Angeles Department of Water & Power,396,CA,CAMX,Los Angeles,34.318248,-118.494449,WAT,HYDRO,WECC
Foothill Feeder,Southern California Edison Co,6645,CA,CAMX,Los Angeles,34.5148,-118.6092,WAT,HYDRO,WECC
Foothill Solar Project,Los Angeles Department of Water & Power,59799,CA,CAMX,Los Angeles,34.2738,-118.3454,SUN,SOLAR,WECC
Forbestown,Pacific Gas & Electric Co,417,CA,CAMX,Butte,39.551012,-121.278784,WAT,HYDRO,WECC
"Forever 21 Retail, Inc.",Los Angeles Department of Water & Power,59651,CA,CAMX,Los Angeles,34.071389,-118.196111,SUN,SOLAR,WECC
Forks of Butte Hydro Project,Pacific Gas & Electric Co,50350,CA,CAMX,Butte,39.869284,-121.631865,WAT,HYDRO,WECC
Foster Wheeler Martinez,Pacific Gas & Electric Co,10342,CA,CAMX,Contra Costa,38.0244,-122.0589,NG,GAS,WECC
Foundation AB,Pacific Gas & Electric Co,57791,CA,CAMX,Solano,38.232222,-122.092778,WND,WIND,WECC
Foundation California Training Facility,Pacific Gas & Electric Co,61442,CA,CAMX,Monterey,36.464,-121.382,WND,WIND,WECC
Foundation CDCR LAC,Southern California Edison Co,61066,CA,CAMX,Los Angeles,34.691,-118.221,WND,WIND,WECC
Foundation Cemex BMQ,Southern California Edison Co,58102,CA,CAMX,San Bernardino,34.623056,-117.1125,WND,WIND,WECC
Foundation Cemex Madison,Pacific Gas & Electric Co,58112,CA,CAMX,Yolo,38.692778,-121.9325,WND,WIND,WECC
Foundation Cemex River Plant,Southern California Edison Co,58101,CA,CAMX,San Bernardino,34.561944,-117.307222,WND,WIND,WECC
Foundation IE,Southern California Edison Co,57792,CA,CAMX,San Bernardino,34.084722,-117.529444,WND,WIND,WECC
Foundation Mann Packing,Pacific Gas & Electric Co,61443,CA,CAMX,Monterey,36.504,-121.454,WND,WIND,WECC
Foundation NWNA,Southern California Edison Co,58114,CA,CAMX,Riverside,33.914167,-116.749167,WND,WIND,WECC
Foundation RRM,Southern California Edison Co,58113,CA,CAMX,Riverside,33.917222,-116.815,WND,WIND,WECC
Foundation SaIinas Valley State Prison,Pacific Gas & Electric Co,61444,CA,CAMX,Monterey,36.474,-121.371,WND,WIND,WECC
Foundation Scheid Vineyards,Pacific Gas &amp; Electric Co,61067,CA,CAMX,Monterey,36.274508,-121.191589,WND,WIND,WECC
Foundation ST,Pacific Gas & Electric Co,57626,CA,CAMX,San Joaquin,37.714167,-121.521666,WND,WIND,WECC
Foundation Superior Farms,Pacific Gas & Electric Co,58104,CA,CAMX,Solano,38.42,-121.818056,WND,WIND,WECC
Foundation Wal-Mart Red Bluff,Pacific Gas & Electric Co,58105,CA,CAMX,Tehama,40.111111,-122.193889,WND,WIND,WECC
Four Mile Hill,Pacific Gas & Electric Co,55845,CA,CAMX,Siskiyou,41.6014,-121.625,GEO,GEOTHERMAL,WECC
FPL Energy Montezuma Winds LLC,Pacific Gas & Electric Co,57201,CA,CAMX,Solano,38.163581,-121.79661,WND,WIND,WECC
Frankenheimer Power Plant,Pacific Gas & Electric Co,50219,CA,CAMX,Stanislaus,37.830378,-120.806972,WAT,HYDRO,WECC
Franklin (CA),Los Angeles Department of Water & Power,397,CA,CAMX,Los Angeles,34.103931,-118.413377,WAT,HYDRO,WECC
Franklin Templeton San Mateo,Pacific Gas & Electric Co,57809,CA,CAMX,San Mateo,37.5425,-122.292778,NG,GAS,WECC
Freeway Springs,Southern California Edison Co,60183,CA,CAMX,Los Angeles,33.892614,-118.037564,SUN,SOLAR,WECC
French Meadows,Pacific Gas & Electric Co,424,CA,CAMX,Placer,39.077971,-120.406069,WAT,HYDRO,WECC
"Fresno Cogeneration Partners, LP",Pacific Gas & Electric Co,10156,CA,CAMX,Fresno,36.617022,-120.099846,NG,GAS,WECC
Fresno Solar,Pacific Gas & Electric Co,60083,CA,CAMX,Fresno,36.616846,-120.105144,SUN,SOLAR,WECC
Friant Hydro Facility,Pacific Gas & Electric Co,50393,CA,CAMX,Fresno,36.997694,-119.703451,WAT,HYDRO,WECC
Frito-Lay Cogen Plant,Pacific Gas & Electric Co,10110,CA,CAMX,Kern,35.395063,-119.321633,NG,GAS,WECC
Frontier Solar LLC,Pacific Gas & Electric Co,60039,CA,CAMX,Stanislaus,37.379919,-121.130661,SUN,SOLAR,WECC
FRV Cygnus Solar Project,Pacific Gas & Electric Co,57651,CA,CAMX,Kern,35.102778,-118.954444,SUN,SOLAR,WECC
FRV SI Transport Solar LP,Sacramento Municipal Util Dist,57506,CA,CAMX,Sacramento,38.4869,-121.3911,SUN,SOLAR,WECC
Fullerton Mill CHP,Southern California Edison Co,58083,CA,CAMX,Orange,33.861667,-117.893056,NG,GAS,WECC
G2 Energy Hay Rd,Pacific Gas & Electric Co,58320,CA,CAMX,Solano,38.314722,-121.833611,LFG,BIOMASS,WECC
G2 Energy Ostrom Road LLC,Pacific Gas & Electric Co,57133,CA,CAMX,Yuba,39.0728,-121.3992,LFG,BIOMASS,WECC
Gap Pacific Distribution Center,Pacific Gas & Electric Co,56909,CA,CAMX,Fresno,36.7839,-119.7094,SUN,SOLAR,WECC
Garnet Solar Generation Station I LLC,Southern California Edison Co,58528,CA,CAMX,Riverside,33.8906,-116.5431,SUN,SOLAR,WECC
Garnet Wind Energy Center,Southern California Edison Co,57302,CA,CAMX,Riverside,33.9053,-116.5825,WND,WIND,WECC
Gas Utilization Facility,San Diego Gas & Electric Co,50492,CA,CAMX,San Diego,32.679172,-117.246698,OBG,BIOMASS,WECC
Gates Peaker,Pacific Gas & Electric Co,55875,CA,CAMX,Fresno,36.152715,-120.148245,NG,GAS,WECC
Gates Solar Station,Pacific Gas & Electric Co,57892,CA,CAMX,Fresno,36.176389,-120.114167,SUN,SOLAR,WECC
Gateway Generating Station,Pacific Gas & Electric Co,56476,CA,CAMX,Contra Costa,38.0175,-121.7587,NG,GAS,WECC
Gaviota Oil Plant,Southern California Edison Co,50623,CA,CAMX,Santa Barbara,34.475067,-120.205107,NG,GAS,WECC
GE 1.7-100 Prototype,Southern California Edison Co,57566,CA,CAMX,Kern,35.155278,-118.369444,WND,WIND,WECC
Genentech Vacaville Meter #1,Pacific Gas & Electric Co,60844,CA,CAMX,Solano,38.390756,-121.94777,SUN,SOLAR,WECC
Genentech-Oceanside,San Diego Gas & Electric Co,60231,CA,CAMX,San Diego,33.211095,-117.299593,SUN,SOLAR,WECC
Genesis Solar Energy Project,Southern California Edison Co,57394,CA,CAMX,Riverside,33.665,-114.998055,SUN,SOLAR,WECC
Geo East Mesa II,Imperial Irrigation District,54038,CA,AZNM,Imperial,32.7757,-115.2637,GEO,GEOTHERMAL,WECC
Geo East Mesa III,Imperial Irrigation District,10763,CA,AZNM,Imperial,32.7757,-115.2637,GEO,GEOTHERMAL,WECC
Geothermal 1,Pacific Gas & Electric Co,7368,CA,CAMX,Sonoma,38.752,-122.7195,GEO,GEOTHERMAL,WECC
Geothermal 2,Pacific Gas & Electric Co,7369,CA,CAMX,Sonoma,38.7492,-122.7117,GEO,GEOTHERMAL,WECC
Geysers Unit 5-20,Pacific Gas & Electric Co,286,CA,CAMX,Sonoma,38.777,-122.745,GEO,GEOTHERMAL,WECC
Gianera,City of Santa Clara - (CA),7231,CA,CAMX,Santa Clara,37.401,-121.96867,NG,GAS,WECC
Giffen,Pacific Gas & Electric Co,57521,CA,CAMX,Fresno,36.530278,-120.316111,SUN,SOLAR,WECC
Giffen Solar Park,Pacific Gas & Electric Co,59522,CA,CAMX,Fresno,36.544722,-120.316111,SUN,SOLAR,WECC
"Gilroy Energy Center, LLC",Pacific Gas & Electric Co,55810,CA,CAMX,Santa Clara,36.999,-121.5363,NG,GAS,WECC
"Gilroy Energy Center, LLC for King City",Pacific Gas & Electric Co,10294,CA,CAMX,Monterey,36.225,-121.1278,NG,GAS,WECC
Glenarm,City of Pasadena - (CA),422,CA,CAMX,Los Angeles,34.126,-118.1494,NG,GAS,WECC
Glendale Battery Energy Storage System,Los Angeles Department of Water & Power,60974,CA,CAMX,Los Angeles,34.162327,-118.283684,MWH,OTHF,WECC
Goal Line,San Diego Gas & Electric Co,54749,CA,CAMX,San Diego,33.1185,-117.0995,NG,GAS,WECC
Golden Acorn Casino,San Diego Gas & Electric Co,59328,CA,CAMX,San Diego,32.702107,-116.354587,WND,WIND,WECC
"Golden Fields Solar I, LLC",Southern California Edison Co,60590,CA,CAMX,Kern,34.839012,-118.386843,SUN,SOLAR,WECC
Golden Hills North Wind Energy Center,Pacific Gas & Electric Co,61222,CA,CAMX,Alameda,37.769189,-121.630163,WND,WIND,WECC
Golden Hills Wind,Pacific Gas & Electric Co,60049,CA,CAMX,Alameda,37.713311,-121.640353,WND,WIND,WECC
Golden Springs Building C-1,Southern California Edison Co,57796,CA,CAMX,Los Angeles,33.914167,-118.053611,SUN,SOLAR,WECC
Golden Springs Building D,Southern California Edison Co,57797,CA,CAMX,Los Angeles,33.911944,-118.052222,SUN,SOLAR,WECC
Goose Haven Energy Center,Pacific Gas & Electric Co,55627,CA,CAMX,Solano,38.226752,-121.843271,NG,GAS,WECC
Gosselin Hydro Plant,Pacific Gas & Electric Co,10128,CA,CAMX,Trinity,40.37,-123.4347,WAT,HYDRO,WECC
Granger,San Diego Gas & Electric Co,60516,CA,CAMX,San Diego,33.2704,-117.0588,SUN,SOLAR,WECC
Grapeland Generating Station,Southern California Edison Co,56472,CA,CAMX,San Bernardino,34.0903,-117.5343,NG,GAS,WECC
Graphic Packaging International,City of Santa Clara - (CA),54561,CA,CAMX,SANTA CLARA,37.368153,-121.943607,NG,GAS,WECC
